award_year,date_awarded,prize_amount,prize_amount_adjusted,laureate_id,known_name,full_name,sex,portion,sort_order,motivation,category,birth_date,birth_city,birth_country,birth_latitude,birth_longitude,death_date,death_city,death_country,death_latitude,death_longitude,affiliation_name,affiliation_city,affiliation_country,affiliation_latitude,affiliation_longitude,wikipedia_url,is_shared,winners_per_year,winners_per_category,is_repeat_winner,country_winner_rank
1901,11/12/1901,150782,10833458,160.0,Jacobus H. van 't Hoff,Jacobus Henricus van 't Hoff,male,1.0,1.0,in recognition of the extraordinary services he has rendered by the discovery of the laws of chemical dynamics and osmotic pressure in solutions,Chemistry,1852-08-30,Rotterdam,the Netherlands,51.925205,4.48911,3/1/1911,Berlin,Germany,52.522265,13.406852,Berlin University,Berlin,Germany,52.522265,13.406852,https://en.wikipedia.org/wiki/Jacobus_Henricus_van_'t_Hoff,0,6,200,0,1.0
1901,11/14/1901,150782,10833458,569.0,Sully Prudhomme,Sully Prudhomme,male,1.0,1.0,"in special recognition of his poetic composition, which gives evidence of lofty idealism, artistic perfection and a rare combination of the qualities of both heart and intellect",Literature,1839-03-16,Paris,France,48.860093,2.355954,9/7/1907,Châtenay,France,48.765278,2.278056,,,,,,https://en.wikipedia.org/wiki/Sully_Prudhomme,0,6,122,0,1.0
1901,12/10/1901,150782,10833458,462.0,Henry Dunant,Jean Henry Dunant,male,0.5,1.0,for his humanitarian efforts to help wounded soldiers and create international understanding,Peace,1828-05-08,Geneva,Switzerland,46.203397,6.145957,10/30/1910,Heiden,Switzerland,47.441111,9.531111,Red Cross,Geneva,Switzerland,,,https://en.wikipedia.org/wiki/Henry_Dunant,1,6,112,0,1.0
1901,12/10/1901,150782,10833458,463.0,Frédéric Passy,Frédéric Passy,male,0.5,2.0,"for his lifelong work for international peace conferences, diplomacy and arbitration",Peace,1822-05-20,Paris,France,48.860093,2.355954,6/12/1912,Paris,France,48.860093,2.355954,,,,,,https://en.wikipedia.org/wiki/Frédéric_Passy,1,6,112,0,2.0
1901,11/12/1901,150782,10833458,1.0,Wilhelm Conrad Röntgen,Wilhelm Conrad Röntgen,male,1.0,1.0,in recognition of the extraordinary services he has rendered by the discovery of the remarkable rays subsequently named after him,Physics,1845-03-27,Remscheid,Germany,51.178742,7.189696,2/10/1923,Munich,Germany,48.134703,11.581995,Munich University,Munich,Germany,48.134703,11.581995,https://en.wikipedia.org/wiki/Wilhelm_Röntgen,0,6,230,0,1.0
1901,10/30/1901,150782,10833458,293.0,Emil von Behring,Emil Adolf von Behring,male,1.0,1.0,"for his work on serum therapy, especially its application against diphtheria, by which he has opened a new road in the domain of medical science and thereby placed in the hands of the physician a victorious weapon against illness and deaths",Physiology or Medicine,1854-03-15,Lawice,Poland,53.58266,19.656639,3/31/1917,Marburg,Germany,50.803393,8.766153,Marburg University,Marburg,Germany,50.803393,8.766153,https://en.wikipedia.org/wiki/Emil_Adolf_von_Behring,0,6,232,0,1.0
1902,11/11/1902,141847,10191492,161.0,Emil Fischer,Hermann Emil Fischer,male,1.0,1.0,in recognition of the extraordinary services he has rendered by his work on sugar and purine syntheses,Chemistry,1852-10-09,Euskirchen,Germany,50.661278,6.787256,7/15/1919,Berlin,Germany,52.522265,13.406852,Berlin University,Berlin,Germany,52.522265,13.406852,https://en.wikipedia.org/wiki/Hermann_Emil_Fischer,0,7,200,0,2.0
1902,11/13/1902,141847,10191492,571.0,Theodor Mommsen,Christian Matthias Theodor Mommsen,male,1.0,1.0,"the greatest living master of the art of historical writing, with special reference to his monumental work, <I>A history of Rome</I>",Literature,1817-11-30,Garding,Germany,54.329881,8.785967,11/1/1903,Charlottenburg,Germany,52.516602,13.304105,University of Berlin,Berlin,Germany,,,https://en.wikipedia.org/wiki/Theodor_Mommsen,0,7,122,0,3.0
1902,12/10/1902,141847,10191492,464.0,Élie Ducommun,Élie Ducommun,male,0.5,1.0,for his untiring and skilful directorship of the Bern Peace Bureau,Peace,1833-02-19,Geneva,Switzerland,46.203397,6.145957,12/7/1906,Bern,Switzerland,46.948471,7.445402,,,,,,https://en.wikipedia.org/wiki/Élie_Ducommun,1,7,112,0,2.0
1902,12/10/1902,141847,10191492,465.0,Albert Gobat,Charles Albert Gobat,male,0.5,2.0,for his eminently practical administration of the Inter-Parliamentary Union,Peace,1843-05-21,Tramelan,Switzerland,47.223333,7.101389,3/16/1914,Bern,Switzerland,46.948471,7.445402,,,,,,https://en.wikipedia.org/wiki/Charles_Albert_Gobat,1,7,112,0,3.0
1902,11/11/1902,141847,10191492,2.0,Hendrik A. Lorentz,Hendrik Antoon Lorentz,male,0.5,1.0,in recognition of the extraordinary service they rendered by their researches into the influence of magnetism upon radiation phenomena,Physics,1853-07-18,Arnhem,the Netherlands,51.984257,5.910857,2/4/1928,,the Netherlands,,,Leiden University,Leiden,the Netherlands,52.160787,4.495746,https://en.wikipedia.org/wiki/Hendrik_Lorentz,1,7,230,0,2.0
1902,11/11/1902,141847,10191492,3.0,Pieter Zeeman,Pieter Zeeman,male,0.5,2.0,in recognition of the extraordinary service they rendered by their researches into the influence of magnetism upon radiation phenomena,Physics,1865-05-25,Zonnemaire,the Netherlands,51.713056,3.951111,10/9/1943,Amsterdam,the Netherlands,52.36942,4.907108,Amsterdam University,Amsterdam,the Netherlands,52.36942,4.907108,https://en.wikipedia.org/wiki/Pieter_Zeeman,1,7,230,0,3.0
1902,10/30/1902,141847,10191492,294.0,Ronald Ross,Ronald Ross,male,1.0,1.0,"for his work on malaria, by which he has shown how it enters the organism and thereby has laid the foundation for successful research on this disease and methods of combating it",Physiology or Medicine,1857-05-13,Almora,India,29.593431,79.654274,9/16/1932,Putney Heath,United Kingdom,,,University College,Liverpool,United Kingdom,53.409188,-2.981257,https://en.wikipedia.org/wiki/Ronald_Ross,0,7,232,0,1.0
1903,11/12/1903,141358,9857642,4.0,Henri Becquerel,Antoine Henri Becquerel,male,0.5,1.0,in recognition of the extraordinary services he has rendered by his discovery of spontaneous radioactivity,Physics,1852-12-15,Paris,France,48.860093,2.355954,8/25/1908,,France,,,École Polytechnique,Paris,France,48.860093,2.355954,https://en.wikipedia.org/wiki/Henri_Becquerel,1,7,230,0,3.0
1903,11/19/1903,141358,9857642,572.0,Bjørnstjerne Bjørnson,Bjørnstjerne Martinus Bjørnson,male,1.0,1.0,"as a tribute to his noble, magnificent and versatile poetry, which has always been distinguished by both the freshness of its inspiration and the rare purity of its spirit",Literature,1832-12-08,Kvikne,Norway,62.562222,10.334722,4/26/1910,Paris,France,48.860093,2.355954,,,,,,https://en.wikipedia.org/wiki/Bjørnstjerne_Bjørnson,0,7,122,0,1.0
1903,12/10/1903,141358,9857642,466.0,Randal Cremer,William Randal Cremer,male,1.0,1.0,for his longstanding and devoted effort in favour of the ideas of peace and arbitration,Peace,1828-03-18,Fareham,United Kingdom,50.85,-1.18,7/22/1908,London,United Kingdom,51.510235,-0.120852,,,,,,https://en.wikipedia.org/wiki/Randal_Cremer,0,7,112,0,1.0
1903,10/15/1903,141358,9857642,295.0,Niels Ryberg Finsen,Niels Ryberg Finsen,male,1.0,1.0,"in recognition of his contribution to the treatment of diseases, especially lupus vulgaris, with concentrated light radiation, whereby he has opened a new avenue for medical science",Physiology or Medicine,1860-12-15,Thorshavn,Faroe Islands (Denmark),62.010863,-6.774051,9/24/1904,Copenhagen,Denmark,55.678127,12.572532,Finsen Medical Light Institute,Copenhagen,Denmark,55.678127,12.572532,https://en.wikipedia.org/wiki/Niels_Ryberg_Finsen,0,7,232,0,1.0
1903,11/12/1903,141358,9857642,5.0,Pierre Curie,Pierre Curie,male,0.25,2.0,in recognition of the extraordinary services they have rendered by their joint researches on the radiation phenomena discovered by Professor Henri Becquerel,Physics,1859-05-15,Paris,France,48.860093,2.355954,4/19/1906,Paris,France,48.860093,2.355954,École municipale de physique et de chimie industrielles (Municipal School of Industrial Physics and Chemistry),Paris,France,48.860093,2.355954,https://en.wikipedia.org/wiki/Pierre_Curie,1,7,230,0,4.0
1903,11/12/1903,141358,9857642,6.0,Marie Curie,"Marie Curie, née Skłodowska",female,0.25,3.0,in recognition of the extraordinary services they have rendered by their joint researches on the radiation phenomena discovered by Professor Henri Becquerel,Physics,1867-11-07,Warsaw,Poland,52.230046,21.011995,7/4/1934,Sallanches,France,45.936661,6.630557,University of Paris,Paris,France,,,https://en.wikipedia.org/wiki/Marie_Curie,1,7,230,0,2.0
1903,11/12/1903,141358,9857642,162.0,Svante Arrhenius,Svante August Arrhenius,male,1.0,1.0,in recognition of the extraordinary services he has rendered to the advancement of chemistry by his electrolytic theory of dissociation,Chemistry,1859-02-19,Vik,Sweden,,,10/2/1927,Stockholm,Sweden,59.325371,18.070794,Stockholm University,Stockholm,Sweden,59.325371,18.070794,https://en.wikipedia.org/wiki/Svante_Arrhenius,0,7,200,0,1.0
1904,11/8/1904,140859,9822844,163.0,Sir William Ramsay,Sir William Ramsay,male,1.0,1.0,"in recognition of his services in the discovery of the inert gaseous elements in air, and his determination of their place in the periodic system",Chemistry,1852-10-02,Glasgow,Scotland,55.861111,-4.25,7/23/1916,High Wycombe,United Kingdom,51.628611,-0.748229,University College,London,United Kingdom,51.510235,-0.120852,https://en.wikipedia.org/wiki/William_Ramsay,0,5,200,0,1.0
1904,11/17/1904,140859,9822844,573.0,Frédéric Mistral,Frédéric Mistral,male,0.5,1.0,"in recognition of the fresh originality and true inspiration of his poetic production, which faithfully reflects the natural scenery and native spirit of his people, and, in addition, his significant work as a Proven&ccedil;al philologist",Literature,1830-09-08,Maillane,France,43.832523,4.782511,3/25/1914,Maillane,France,43.832523,4.782511,,,,,,https://en.wikipedia.org/wiki/Frédéric_Mistral,1,5,122,0,5.0
1904,11/17/1904,140859,9822844,574.0,José Echegaray,José Echegaray y Eizaguirre,male,0.5,2.0,"in recognition of the numerous and brilliant compositions which, in an individual and original manner, have revived the great traditions of the Spanish drama",Literature,1832-04-19,Madrid,Spain,40.423203,-3.693965,9/4/1916,Madrid,Spain,40.423203,-3.693965,,,,,,https://en.wikipedia.org/wiki/José_Echegaray,1,5,122,0,1.0
1904,11/8/1904,140859,9822844,8.0,Lord Rayleigh,Lord Rayleigh (John William Strutt),male,1.0,1.0,for his investigations of the densities of the most important gases and for his discovery of argon in connection with these studies,Physics,1842-11-12,"Langford Grove, Maldon, Essex",United Kingdom,,,6/30/1919,,United Kingdom,,,Royal Institution of Great Britain,London,United Kingdom,51.510235,-0.120852,"https://en.wikipedia.org/wiki/John_Strutt,_3rd_Baron_Rayleigh",0,5,230,0,2.0
1904,10/20/1904,140859,9822844,296.0,Ivan Pavlov,Ivan Petrovich Pavlov,male,1.0,1.0,"in recognition of his work on the physiology of digestion, through which knowledge on vital aspects of the subject has been transformed and enlarged",Physiology or Medicine,1849-09-14,Ryazan,Russia,54.613102,39.704829,2/27/1936,Leningrad,Russia,59.904356,30.35828,Military Medical Academy,St. Petersburg,Russia,59.956651,30.333547,https://en.wikipedia.org/wiki/Ivan_Pavlov,0,5,232,0,1.0
1905,11/9/1905,138089,9629677,575.0,Henryk Sienkiewicz,Henryk Sienkiewicz,male,1.0,1.0,because of his outstanding merits as an epic writer,Literature,1846-05-05,Wola Okrzejska,Poland,51.749447,22.133632,11/15/1916,Vevey,Switzerland,46.462833,6.841919,,,,,,https://en.wikipedia.org/wiki/Henryk_Sienkiewicz,0,5,122,0,3.0
1905,11/9/1905,138089,9629677,9.0,Philipp Lenard,Philipp Eduard Anton von Lenard,male,1.0,1.0,for his work on cathode rays,Physics,1862-06-07,Bratislava,Slovakia,48.144722,17.112778,5/20/1947,Messelhausen,Germany,49.575453,9.788308,Kiel University,Kiel,Germany,54.323168,10.121556,https://en.wikipedia.org/wiki/Philipp_Lenard,0,5,230,0,1.0
1905,11/9/1905,138089,9629677,164.0,Adolf von Baeyer,Johann Friedrich Wilhelm Adolf von Baeyer,male,1.0,1.0,"in recognition of his services in the advancement of organic chemistry and the chemical industry, through his work on organic dyes and hydroaromatic compounds",Chemistry,1835-10-31,Berlin,Germany,52.522265,13.406852,8/20/1917,Starnberg,Germany,48.000536,11.342857,Munich University,Munich,Germany,48.134703,11.581995,https://en.wikipedia.org/wiki/Adolf_von_Baeyer,0,5,200,0,4.0
1905,10/12/1905,138089,9629677,297.0,Robert Koch,Robert Koch,male,1.0,1.0,for his investigations and discoveries in relation to tuberculosis,Physiology or Medicine,1843-12-11,Clausthal-Zellerfeld,Germany,51.805,10.335556,5/27/1910,Baden-Baden,Germany,48.76564,8.228524,Institute for Infectious Diseases,Berlin,Germany,52.522265,13.406852,https://en.wikipedia.org/wiki/Robert_Koch,0,5,232,0,5.0
1905,12/10/1905,138089,9629677,468.0,Bertha von Suttner,"Baroness Bertha Sophie Felicita von Suttner, née Countess Kinsky von Chinic und Tettau",female,1.0,1.0,for her audacity to oppose the horrors of war,Peace,1843-06-09,Prague,Czech Republic,50.07507,14.42989,6/21/1914,Vienna,Austria,48.207646,16.372793,,,,,,https://en.wikipedia.org/wiki/Bertha_von_Suttner,0,5,112,0,1.0
1906,11/12/1906,138536,9384824,165.0,Henri Moissan,Henri Moissan,male,1.0,1.0,"in recognition of the great services rendered by him in his investigation and isolation of the element fluorine, and for the adoption in the service of science of the electric furnace called after him",Chemistry,1852-09-28,Paris,France,48.860093,2.355954,2/20/1907,Paris,France,48.860093,2.355954,Sorbonne University,Paris,France,48.860093,2.355954,https://en.wikipedia.org/wiki/Henri_Moissan,0,6,200,0,6.0
1906,11/8/1906,138536,9384824,576.0,Giosuè Carducci,Giosuè Carducci,male,1.0,1.0,"not only in consideration of his deep learning and critical research, but above all as a tribute to the creative energy, freshness of style, and lyrical force which characterize his poetic masterpieces",Literature,1835-07-27,Val di Castello,Italy,44.49382,11.342633,2/16/1907,Bologna,Italy,44.493889,11.342778,,,,,,https://en.wikipedia.org/wiki/Giosuè_Carducci,0,6,122,0,1.0
1906,12/10/1906,138536,9384824,470.0,Theodore Roosevelt,Theodore Roosevelt Jr.,male,1.0,1.0,"for his role in bringing to an end the bloody war recently waged between two of the world's great powers, Japan and Russia",Peace,1858-10-27,"New York, NY",USA,40.715758,-74.0113,1/6/1919,"Oyster Bay, NY",USA,40.759389,-73.502806,US Government,Washington,USA,,,https://en.wikipedia.org/wiki/Theodore_Roosevelt,0,6,112,0,1.0
1906,11/12/1906,138536,9384824,10.0,J.J. Thomson,Joseph John Thomson,male,1.0,1.0,in recognition of the great merits of his theoretical and experimental investigations on the conduction of electricity by gases,Physics,1856-12-18,Cheetham Hill,United Kingdom,53.502515,-2.235535,8/30/1940,Cambridge,United Kingdom,52.194605,0.135092,University of Cambridge,Cambridge,United Kingdom,52.194605,0.135092,https://en.wikipedia.org/wiki/J._J._Thomson,0,6,230,0,3.0
1906,10/25/1906,138536,9384824,298.0,Camillo Golgi,Camillo Golgi,male,0.5,1.0,in recognition of their work on the structure of the nervous system,Physiology or Medicine,1843-07-07,Corteno,Italy,46.166944,10.244444,1/21/1926,Pavia,Italy,45.184853,9.154865,Pavia University,Pavia,Italy,45.184853,9.154865,https://en.wikipedia.org/wiki/Camillo_Golgi,1,6,232,0,2.0
1906,10/25/1906,138536,9384824,299.0,Santiago Ramón y Cajal,Santiago Ramón y Cajal,male,0.5,2.0,in recognition of their work on the structure of the nervous system,Physiology or Medicine,1852-05-01,Petilla de Aragón,Spain,42.461576,-1.092493,10/17/1934,Madrid,Spain,40.423203,-3.693965,Madrid University,Madrid,Spain,40.423203,-3.693965,https://en.wikipedia.org/wiki/Santiago_Ramón_y_Cajal,1,6,232,0,2.0
1907,11/12/1907,138796,8894198,166.0,Eduard Buchner,Eduard Buchner,male,1.0,1.0,for his biochemical researches and his discovery of cell-free fermentation,Chemistry,1860-05-20,Munich,Germany,48.134703,11.581995,8/13/1917,Focsani,Romania,45.696475,27.184043,Landwirtschaftliche Hochschule (Agricultural College),Berlin,Germany,52.522265,13.406852,https://en.wikipedia.org/wiki/Eduard_Buchner,0,6,200,0,6.0
1907,11/7/1907,138796,8894198,577.0,Rudyard Kipling,Rudyard Kipling,male,1.0,1.0,"in consideration of the power of observation, originality of imagination, virility of ideas and remarkable talent for narration which characterize the creations of this world-famous author",Literature,1865-12-30,Mumbai,India,19.075833,72.8775,1/18/1936,London,United Kingdom,51.510235,-0.120852,,,,,,https://en.wikipedia.org/wiki/Rudyard_Kipling,0,6,122,0,2.0
1907,12/10/1907,138796,8894198,471.0,Ernesto Teodoro Moneta,Ernesto Teodoro Moneta,male,0.5,1.0,"for his work in the press and in peace meetings, both public and private, for an understanding between France and Italy",Peace,1833-09-20,Milan,Italy,45.460249,9.181687,2/10/1918,Milan,Italy,45.460249,9.181687,,,,,,https://en.wikipedia.org/wiki/Ernesto_Teodoro_Moneta,1,6,112,0,3.0
1907,12/10/1907,138796,8894198,472.0,Louis Renault,Louis Renault,male,0.5,2.0,for his decisive influence upon the conduct and outcome of the Hague and Geneva Conferences,Peace,1843-05-21,Autun,France,46.951111,4.298611,2/8/1918,Barbizon,France,48.445165,2.606217,Sorbonne University,Paris,France,48.860093,2.355954,https://en.wikipedia.org/wiki/Louis_Renault_(jurist),1,6,112,0,7.0
1907,11/12/1907,138796,8894198,11.0,Albert A. Michelson,Albert Abraham Michelson,male,1.0,1.0,for his optical precision instruments and the spectroscopic and metrological investigations carried out with their aid,Physics,1852-12-19,Strzelno,Poland,52.629444,18.17,5/9/1931,"Pasadena, CA",USA,34.150071,-118.142111,University of Chicago,"Chicago, IL",USA,41.876228,-87.638416,https://en.wikipedia.org/wiki/Albert_Abraham_Michelson,0,6,230,0,4.0
1907,10/31/1907,138796,8894198,300.0,Alphonse Laveran,Charles Louis Alphonse Laveran,male,1.0,1.0,in recognition of his work on the role played by protozoa in causing diseases,Physiology or Medicine,1845-06-18,Paris,France,48.860093,2.355954,5/18/1922,Paris,France,48.860093,2.355954,Institut Pasteur,Paris,France,48.860093,2.355954,https://en.wikipedia.org/wiki/Charles_Louis_Alphonse_Laveran,0,6,232,0,8.0
1908,11/12/1908,139800,8958535,578.0,Rudolf Eucken,Rudolf Christoph Eucken,male,1.0,1.0,"in recognition of his earnest search for truth, his penetrating power of thought, his wide range of vision, and the warmth and strength in presentation with which in his numerous works he has vindicated and developed an idealistic philosophy of life",Literature,1846-01-05,Aurich,Germany,53.472865,7.479315,9/14/1926,Jena,Germany,50.927222,11.586389,,,,,,https://en.wikipedia.org/wiki/Rudolf_Christoph_Eucken,0,7,122,0,7.0
1908,12/10/1908,139800,8958535,474.0,Fredrik Bajer,Fredrik Bajer,male,0.5,2.0,"for their long time work for the cause of peace as politicians, peace society leaders, orators and authors",Peace,1837-04-21,Næstved,Denmark,55.233333,11.766667,1/22/1922,Copenhagen,Denmark,55.678127,12.572532,,,,,,https://en.wikipedia.org/wiki/Fredrik_Bajer,1,7,112,0,1.0
1908,12/10/1908,139800,8958535,473.0,Klas Pontus Arnoldson,Klas Pontus Arnoldson,male,0.5,1.0,"for their long time work for the cause of peace as politicians, peace society leaders, orators and authors",Peace,1844-10-27,Gothenburg,Sweden,57.707168,12.003677,2/20/1916,Stockholm,Sweden,59.325371,18.070794,,,,,,https://en.wikipedia.org/wiki/Klas_Pontus_Arnoldson,1,7,112,0,2.0
1908,10/29/1908,139800,8958535,301.0,Ilya Mechnikov,Ilya Ilyich Mechnikov,male,0.5,1.0,in recognition of their work on immunity,Physiology or Medicine,1845-05-15,Kharkiv,Ukraine,49.9925,36.231111,7/15/1916,Paris,France,48.860093,2.355954,Institut Pasteur,Paris,France,48.860093,2.355954,https://en.wikipedia.org/wiki/Élie_Metchnikoff,1,7,232,0,1.0
1908,11/10/1908,139800,8958535,12.0,Gabriel Lippmann,Gabriel Lippmann,male,1.0,1.0,for his method of reproducing colours photographically based on the phenomenon of interference,Physics,1845-08-16,Hollerich,Luxembourg,49.604222,6.11188,7/13/1921,,,,,Sorbonne University,Paris,France,48.860093,2.355954,https://en.wikipedia.org/wiki/Gabriel_Lippmann,0,7,230,0,1.0
1908,10/29/1908,139800,8958535,302.0,Paul Ehrlich,Paul Ehrlich,male,0.5,2.0,in recognition of their work on immunity,Physiology or Medicine,1854-03-14,Strzelin,Poland,50.783333,17.066667,8/20/1915,Bad Homburg vor der Höhe,Germany,50.228031,8.618313,Goettingen University,Göttingen,Germany,51.539385,9.913113,https://en.wikipedia.org/wiki/Paul_Ehrlich,1,7,232,0,5.0
1908,11/10/1908,139800,8958535,167.0,Ernest Rutherford,Ernest Rutherford,male,1.0,1.0,"for his investigations into the disintegration of the elements, and the chemistry of radioactive substances",Chemistry,1871-08-30,Nelson,New Zealand,-41.298971,173.243545,10/19/1937,Cambridge,United Kingdom,52.194605,0.135092,Victoria University,Manchester,United Kingdom,53.478756,-2.245094,https://en.wikipedia.org/wiki/Ernest_Rutherford,0,7,200,0,1.0
1909,11/11/1909,139800,8958535,579.0,Selma Lagerlöf,Selma Ottilia Lovisa Lagerlöf,female,1.0,1.0,"in appreciation of the lofty idealism, vivid imagination and spiritual perception that characterize her writings",Literature,1858-11-20,Mårbacka,Sweden,59.780975,13.233421,3/16/1940,Mårbacka,Sweden,59.780975,13.233421,,,,,,https://en.wikipedia.org/wiki/Selma_Lagerlöf,0,7,122,0,3.0
1909,11/9/1909,139800,8958535,168.0,Wilhelm Ostwald,Wilhelm Ostwald,male,1.0,1.0,in recognition of his work on catalysis and for his investigations into the fundamental principles governing chemical equilibria and rates of reaction,Chemistry,1853-09-02,Riga,Latvia,56.966035,24.106409,4/4/1932,Leipzig,Germany,51.339522,12.384015,Leipzig University,Leipzig,Germany,51.339522,12.384015,https://en.wikipedia.org/wiki/Wilhelm_Ostwald,0,7,200,0,1.0
1909,10/28/1909,139800,8958535,303.0,Theodor Kocher,Emil Theodor Kocher,male,1.0,1.0,"for his work on the physiology, pathology and surgery of the thyroid gland",Physiology or Medicine,1841-08-25,Bern,Switzerland,46.948471,7.445402,7/27/1917,Bern,Switzerland,46.948471,7.445402,Berne University,Bern,Switzerland,46.948471,7.445402,https://en.wikipedia.org/wiki/Emil_Theodor_Kocher,0,7,232,0,4.0
1909,12/10/1909,139800,8958535,475.0,Auguste Beernaert,Auguste Marie François Beernaert,male,0.5,1.0,for their prominent position in the international movement for peace and arbitration,Peace,1829-07-26,Ostend,Belgium,51.225833,2.919444,10/6/1912,Lucerne,Switzerland,47.050168,8.309307,,,,,,https://en.wikipedia.org/wiki/Auguste_Marie_François_Beernaert,1,7,112,0,1.0
1909,11/9/1909,139800,8958535,14.0,Ferdinand Braun,Karl Ferdinand Braun,male,0.5,2.0,in recognition of their contributions to the development of wireless telegraphy,Physics,1850-06-06,Fulda,Germany,50.55589,9.68009,4/20/1918,"Brooklyn, NY",USA,40.676379,-73.949819,Strasbourg University,Strasbourg,France,48.573361,7.752464,https://en.wikipedia.org/wiki/Karl_Ferdinand_Braun,1,7,230,0,8.0
1909,11/9/1909,139800,8958535,13.0,Guglielmo Marconi,Guglielmo Marconi,male,0.5,1.0,in recognition of their contributions to the development of wireless telegraphy,Physics,1874-04-25,Bologna,Italy,44.493889,11.342778,7/20/1937,Rome,Italy,41.902288,12.506464,Marconi Wireless Telegraph Co. Ltd.,London,United Kingdom,51.510235,-0.120852,https://en.wikipedia.org/wiki/Guglielmo_Marconi,1,7,230,0,4.0
1909,12/10/1909,139800,8958535,476.0,Paul Henri d'Estournelles de Constant,"Paul Henri Benjamin Balluet d'Estournelles de Constant, Baron de Constant de Rebecque",male,0.5,2.0,for their prominent position in the international movement for peace and arbitration,Peace,1852-11-22,La Flèche,France,47.699722,-0.076111,5/15/1924,Paris,France,48.860093,2.355954,,,,,,https://en.wikipedia.org/wiki/Paul-Henri-Benjamin_d'Estournelles_de_Constant,1,7,112,0,9.0
1910,11/12/1910,140703,9016400,169.0,Otto Wallach,Otto Wallach,male,1.0,1.0,in recognition of his services to organic chemistry and the chemical industry by his pioneer work in the field of alicyclic compounds,Chemistry,1847-03-27,Kaliningrad,Russia,54.716667,20.5,2/26/1931,Göttingen,Germany,51.539385,9.913113,Goettingen University,Göttingen,Germany,51.539385,9.913113,https://en.wikipedia.org/wiki/Otto_Wallach,0,4,200,0,2.0
1910,11/10/1910,140703,9016400,580.0,Paul Heyse,Paul Johann Ludwig Heyse,male,1.0,1.0,"as a tribute to the consummate artistry, permeated with idealism, which he has demonstrated during his long productive career as a lyric poet, dramatist, novelist and writer of world-renowned short stories",Literature,1830-03-15,Berlin,Germany,52.522265,13.406852,4/2/1914,Munich,Germany,48.134703,11.581995,,,,,,https://en.wikipedia.org/wiki/Paul_Heyse,0,4,122,0,9.0
1910,11/5/1910,140703,9016400,15.0,Johannes Diderik van der Waals,Johannes Diderik van der Waals,male,1.0,1.0,for his work on the equation of state for gases and liquids,Physics,1837-11-23,Leiden,the Netherlands,52.160787,4.495746,3/8/1923,Amsterdam,the Netherlands,52.36942,4.907108,Amsterdam University,Amsterdam,the Netherlands,52.36942,4.907108,https://en.wikipedia.org/wiki/Johannes_Diderik_van_der_Waals,0,4,230,0,4.0
1910,10/20/1910,140703,9016400,304.0,Albrecht Kossel,Albrecht Kossel,male,1.0,1.0,"in recognition of the contributions to our knowledge of cell chemistry made through his work on proteins, including the nucleic substances",Physiology or Medicine,1853-09-16,Rostock,Germany,54.083333,12.133333,7/5/1927,Heidelberg,Germany,49.39922,8.680522,University of Heidelberg,Heidelberg,Germany,49.39922,8.680522,https://en.wikipedia.org/wiki/Albrecht_Kossel,0,4,232,0,10.0
1911,11/7/1911,140695,9266329,6.0,Marie Curie,"Marie Curie, née Skłodowska",female,1.0,1.0,"in recognition of her services to the advancement of chemistry by the discovery of the elements radium and polonium, by the isolation of radium and the study of the nature and compounds of this remarkable element",Chemistry,1867-11-07,Warsaw,Poland,52.230046,21.011995,7/4/1934,Sallanches,France,45.936661,6.630557,Sorbonne University,Paris,France,48.860093,2.355954,https://en.wikipedia.org/wiki/Marie_Curie,0,6,200,1,6.0
1911,11/9/1911,140695,9266329,581.0,Maurice Maeterlinck,Count Maurice (Mooris) Polidore Marie Bernhard Maeterlinck,male,1.0,1.0,"in appreciation of his many-sided literary activities, and especially of his dramatic works, which are distinguished by a wealth of imagination and by a poetic fancy, which reveals, sometimes in the guise of a fairy tale, a deep inspiration, while in a mysterious way they appeal to the readers' own feelings and stimulate their imaginations",Literature,1862-08-29,Ghent,Belgium,51.04699,3.735154,5/6/1949,Nice,France,43.709618,7.26105,,,,,,https://en.wikipedia.org/wiki/Maurice_Maeterlinck,0,6,122,0,2.0
1911,12/10/1911,140695,9266329,478.0,Tobias Asser,Tobias Michael Carel Asser,male,0.5,1.0,"for his role as co-founder of the Institut de droit international, initiator of the Conferences on International Private Law (Conférences de Droit international privé) at the Hague, and pioneer in the field of international legal relations",Peace,1838-04-28,Amsterdam,the Netherlands,52.36942,4.907108,7/29/1913,the Hague,the Netherlands,52.070359,4.300254,,,,,,https://en.wikipedia.org/wiki/Tobias_Asser,1,6,112,0,5.0
1911,12/10/1911,140695,9266329,479.0,Alfred Fried,Alfred Hermann Fried,male,0.5,2.0,"for his effort to expose and fight what he considers to be the main cause of war, namely, the anarchy in international relations",Peace,1864-11-11,Vienna,Austria,48.207646,16.372793,5/4/1921,Vienna,Austria,48.207646,16.372793,,,,,,https://en.wikipedia.org/wiki/Alfred_Hermann_Fried,1,6,112,0,1.0
1911,11/7/1911,140695,9266329,16.0,Wilhelm Wien,Wilhelm Wien,male,1.0,1.0,for his discoveries regarding the laws governing the radiation of heat,Physics,1864-01-13,Parusnoye,Russia,,,8/30/1928,Munich,Germany,48.134703,11.581995,Würzburg University,Würzburg,Germany,49.791282,9.953253,https://en.wikipedia.org/wiki/Wilhelm_Wien,0,6,230,0,3.0
1911,10/19/1911,140695,9266329,305.0,Allvar Gullstrand,Allvar Gullstrand,male,1.0,1.0,for his work on the dioptrics of the eye,Physiology or Medicine,1862-06-05,Landskrona,Sweden,55.879416,12.837004,7/28/1930,Stockholm,Sweden,59.325371,18.070794,Uppsala University,Uppsala,Sweden,59.858503,17.638748,https://en.wikipedia.org/wiki/Allvar_Gullstrand,0,6,232,0,4.0
1912,11/12/1912,140476,8540220,172.0,Victor Grignard,Victor Grignard,male,0.5,1.0,"for the discovery of the so-called Grignard reagent, which in recent years has greatly advanced the progress of organic chemistry",Chemistry,1871-05-06,Cherbourg,France,49.633731,-1.622137,12/13/1935,Lyon,France,45.758889,4.841389,Nancy University,Nancy,France,48.691336,6.185111,https://en.wikipedia.org/wiki/Victor_Grignard,1,6,200,0,10.0
1912,11/12/1912,140476,8540220,173.0,Paul Sabatier,Paul Sabatier,male,0.5,2.0,for his method of hydrogenating organic compounds in the presence of finely disintegrated metals whereby the progress of organic chemistry has been greatly advanced in recent years,Chemistry,1854-11-05,Carcassonne,France,43.215833,2.351389,8/14/1941,Toulouse,France,43.604154,1.442453,Toulouse University,Toulouse,France,43.604154,1.442453,https://en.wikipedia.org/wiki/Paul_Sabatier_(chemist),1,6,200,0,11.0
1912,11/14/1912,140476,8540220,582.0,Gerhart Hauptmann,Gerhart Johann Robert Hauptmann,male,1.0,1.0,"primarily in recognition of his fruitful, varied and outstanding production in the realm of dramatic art",Literature,1862-11-15,Bad Salzbrunn,Poland,50.803519,16.25655,6/6/1946,Jagniatków,Poland,,,,,,,,https://en.wikipedia.org/wiki/Gerhart_Hauptmann,0,6,122,0,7.0
1912,12/10/1913,140476,8540220,480.0,Elihu Root,Elihu Root,male,1.0,1.0,for bringing about better understanding between the countries of North and South America and initiating important arbitration agreements between the United States and other countries,Peace,1845-02-15,"Clinton, NY",USA,44.943056,-73.9475,2/7/1937,"New York, NY",USA,40.715758,-74.0113,,,,,,https://en.wikipedia.org/wiki/Elihu_Root,0,6,112,0,2.0
1912,11/12/1912,140476,8540220,17.0,Gustaf Dalén,Nils Gustaf Dalén,male,1.0,1.0,for his invention of automatic regulators for use in conjunction with gas accumulators for illuminating lighthouses and buoys,Physics,1869-11-30,Stenstorp,Sweden,58.272744,13.717164,12/9/1937,Stockholm,Sweden,59.325371,18.070794,Swedish Gas-Accumulator Co.,"Lidingö, Stockholm",Sweden,59.366158,18.135287,https://en.wikipedia.org/wiki/Gustaf_Dalén,0,6,230,0,5.0
1912,10/10/1912,140476,8540220,306.0,Alexis Carrel,Alexis Carrel,male,1.0,1.0,in recognition of his work on vascular suture and the transplantation of blood vessels and organs,Physiology or Medicine,1873-06-28,Sainte-Foy-lès-Lyon,France,45.733611,4.8025,11/5/1944,Paris,France,48.860093,2.355954,Rockefeller Institute for Medical Research,"New York, NY",USA,40.715758,-74.0113,https://en.wikipedia.org/wiki/Alexis_Carrel,0,6,232,0,12.0
1913,11/13/1913,143010,8694275,583.0,Rabindranath Tagore,Rabindranath Tagore,male,1.0,1.0,"because of his profoundly sensitive, fresh and beautiful verse, by which, with consummate skill, he has made his poetic thought, expressed in his own English words, a part of the literature of the West",Literature,1861-05-07,Calcutta,India,22.579858,88.368101,8/7/1941,Calcutta,India,22.579858,88.368101,,,,,,https://en.wikipedia.org/wiki/Rabindranath_Tagore,0,5,122,0,3.0
1913,11/11/1913,143010,8694275,174.0,Alfred Werner,Alfred Werner,male,1.0,1.0,in recognition of his work on the linkage of atoms in molecules by which he has thrown new light on earlier investigations and opened up new fields of research especially in inorganic chemistry,Chemistry,1866-12-12,Mulhouse,France,47.75096,7.335412,11/15/1919,Zurich,Switzerland,47.376909,8.541697,University of Zurich,Zurich,Switzerland,47.376909,8.541697,https://en.wikipedia.org/wiki/Alfred_Werner,0,5,200,0,13.0
1913,12/10/1913,143010,8694275,481.0,Henri La Fontaine,Henri La Fontaine,male,1.0,1.0,for his unparalleled contribution to the organization of peaceful internationalism,Peace,1854-04-22,Brussels,Belgium,50.849243,4.354815,5/14/1943,Brussels,Belgium,50.849243,4.354815,,,,,,https://en.wikipedia.org/wiki/Henri_La_Fontaine,0,5,112,0,3.0
1913,10/30/1913,143010,8694275,307.0,Charles Richet,Charles Robert Richet,male,1.0,1.0,in recognition of his work on anaphylaxis,Physiology or Medicine,1850-08-26,Paris,France,48.860093,2.355954,12/4/1935,Paris,France,48.860093,2.355954,Sorbonne University,Paris,France,48.860093,2.355954,https://en.wikipedia.org/wiki/Charles_Richet,0,5,232,0,14.0
1913,11/11/1913,143010,8694275,18.0,Heike Kamerlingh Onnes,Heike Kamerlingh Onnes,male,1.0,1.0,"for his investigations on the properties of matter at low temperatures which led, inter alia, to the production of liquid helium",Physics,1853-09-21,Groningen,the Netherlands,53.218593,6.566722,2/21/1926,Leiden,the Netherlands,52.160787,4.495746,Leiden University,Leiden,the Netherlands,52.160787,4.495746,https://en.wikipedia.org/wiki/Heike_Kamerlingh_Onnes,0,5,230,0,6.0
1914,11/11/1915,146900,8930767,175.0,Theodore W. Richards,Theodore William Richards,male,1.0,1.0,in recognition of his accurate determinations of the atomic weight of a large number of chemical elements,Chemistry,1868-01-31,"Germantown, PA",USA,40.043611,-75.181944,4/2/1928,"Cambridge, MA",USA,42.374024,-71.107306,Harvard University,"Cambridge, MA",USA,42.374024,-71.107306,https://en.wikipedia.org/wiki/Theodore_William_Richards,0,3,200,0,3.0
1914,11/11/1915,146900,8930767,19.0,Max von Laue,Max von Laue,male,1.0,1.0,for his discovery of the diffraction of X-rays by crystals,Physics,1879-10-09,Pfaffendorf,Germany,,,4/23/1960,Berlin,Germany,52.522265,13.406852,Frankfurt-on-the-Main University,Frankfurt-on-the-Main,Germany,50.107886,8.691488,https://en.wikipedia.org/wiki/Max_von_Laue,0,3,230,0,11.0
1914,10/29/1915,146900,8930767,308.0,Robert Bárány,Robert Bárány,male,1.0,1.0,for his work on the physiology and pathology of the vestibular apparatus,Physiology or Medicine,1876-04-22,Vienna,Austria,48.207646,16.372793,4/8/1936,Uppsala,Sweden,59.858503,17.638748,Vienna University,Vienna,Austria,48.207646,16.372793,https://en.wikipedia.org/wiki/Róbert_Bárány,0,3,232,0,2.0
1915,11/11/1915,149223,7862394,176.0,Richard Willstätter,Richard Martin Willstätter,male,1.0,1.0,"for his researches on plant pigments, especially chlorophyll",Chemistry,1872-08-13,Karlsruhe,Germany,49.016667,8.4,8/3/1942,Locarno,Switzerland,46.166999,8.794264,Kaiser-Wilhelm-Institut (now Max-Planck Institut) für Chemie,Berlin-Dahlem,Germany,52.453739,13.29313,https://en.wikipedia.org/wiki/Richard_Willstätter,0,4,200,0,12.0
1915,11/9/1916,149223,7862394,584.0,Romain Rolland,Romain Rolland,male,1.0,1.0,as a tribute to the lofty idealism of his literary production and to the sympathy and love of truth with which he has described different types of human beings,Literature,1866-01-29,Clamecy,France,47.463898,3.741917,12/30/1944,Vézelay,France,47.463676,3.743074,,,,,,https://en.wikipedia.org/wiki/Romain_Rolland,0,4,122,0,15.0
1915,11/12/1915,149223,7862394,20.0,William Bragg,Sir William Henry Bragg,male,0.5,1.0,for their services in the analysis of crystal structure by means of X-rays,Physics,1862-07-02,Wigton,United Kingdom,54.825544,-3.161231,3/12/1942,London,United Kingdom,51.510235,-0.120852,University College,London,United Kingdom,51.510235,-0.120852,https://en.wikipedia.org/wiki/William_Henry_Bragg,1,4,230,0,4.0
1915,11/12/1915,149223,7862394,21.0,Lawrence Bragg,William Lawrence Bragg,male,0.5,2.0,for their services in the analysis of crystal structure by means of X-rays,Physics,1890-03-31,Adelaide,Australia,-34.92694,138.598792,7/1/1971,Ipswich,United Kingdom,52.059444,1.155556,Victoria University,Manchester,United Kingdom,53.478756,-2.245094,https://en.wikipedia.org/wiki/William_Lawrence_Bragg,1,4,230,0,1.0
1916,11/9/1916,131793,6127082,585.0,Verner von Heidenstam,Carl Gustaf Verner von Heidenstam,male,1.0,1.0,in recognition of his significance as the leading representative of a new era in our literature,Literature,1859-07-06,Olshammar,Sweden,58.75706,14.78907,5/20/1940,Övralid,Sweden,58.607567,14.944133,,,,,,https://en.wikipedia.org/wiki/Verner_von_Heidenstam,0,1,122,0,6.0
1917,11/8/1917,133823,4957724,587.0,Henrik Pontoppidan,Henrik Pontoppidan,male,0.5,2.0,for his authentic descriptions of present-day life in Denmark,Literature,1857-07-24,Fredericia,Denmark,55.564444,9.759722,8/21/1943,Ordrup,Denmark,55.7647,12.5831,,,,,,https://en.wikipedia.org/wiki/Henrik_Pontoppidan,1,3,122,0,2.0
1917,11/12/1918,133823,4957724,22.0,Charles Glover Barkla,Charles Glover Barkla,male,1.0,1.0,for his discovery of the characteristic R&ouml;ntgen radiation of the elements,Physics,1877-06-07,Widnes,United Kingdom,53.363056,-2.728056,10/23/1944,Edinburgh,Scotland,55.955709,-3.207405,Edinburgh University,Edinburgh,United Kingdom,55.955709,-3.207405,https://en.wikipedia.org/wiki/Charles_Glover_Barkla,0,3,230,0,5.0
1917,11/8/1917,133823,4957724,586.0,Karl Gjellerup,Karl Adolph Gjellerup,male,0.5,1.0,"for his varied and rich poetry, which is inspired by lofty ideals",Literature,1857-06-02,Roholte,Denmark,55.195,12.09,10/11/1919,Klotzsche,Germany,51.115077,13.788928,,,,,,https://en.wikipedia.org/wiki/Karl_Adolph_Gjellerup,1,3,122,0,3.0
1918,11/13/1919,138198,3600741,177.0,Fritz Haber,Fritz Haber,male,1.0,1.0,for the synthesis of ammonia from its elements,Chemistry,1868-12-09,Wroclaw,Poland,51.11,17.0325,1/29/1934,Basel,Switzerland,47.560153,7.58788,Kaiser-Wilhelm-Institut (now Fritz-Haber-Institut) für physikalische Chemie und Electrochemie,Berlin-Dahlem,Germany,52.453739,13.29313,https://en.wikipedia.org/wiki/Fritz_Haber,0,2,200,0,8.0
1918,11/13/1919,138198,3600741,23.0,Max Planck,Max Karl Ernst Ludwig Planck,male,1.0,1.0,in recognition of the services he rendered to the advancement of Physics by his discovery of energy quanta,Physics,1858-04-23,Kiel,Germany,54.323168,10.121556,10/4/1947,Göttingen,Germany,51.539385,9.913113,Berlin University,Berlin,Germany,52.522265,13.406852,https://en.wikipedia.org/wiki/Max_Planck,0,2,230,0,13.0
1919,11/11/1920,133127,3006134,588.0,Carl Spitteler,Carl Friedrich Georg Spitteler,male,1.0,1.0,"in special appreciation of his epic, <I>Olympian Spring</I>",Literature,1845-04-24,Liestal,Switzerland,47.483889,7.735,12/29/1924,Lucerne,Switzerland,47.050168,8.309307,,,,,,https://en.wikipedia.org/wiki/Carl_Spitteler,0,4,122,0,5.0
1919,12/10/1920,133127,3006134,483.0,Woodrow Wilson,Thomas Woodrow Wilson,male,1.0,1.0,for his role as founder of the League of Nations,Peace,1856-12-28,"Staunton, VA",USA,38.149576,-79.071696,2/3/1924,"Washington, D.C.",USA,38.899065,-77.036523,,,,,,https://en.wikipedia.org/wiki/Woodrow_Wilson,0,4,112,0,4.0
1919,11/13/1919,133127,3006134,24.0,Johannes Stark,Johannes Stark,male,1.0,1.0,for his discovery of the Doppler effect in canal rays and the splitting of spectral lines in electric fields,Physics,1874-04-15,Schickenhof,Germany,48.606708,15.102762,6/21/1957,Traunstein,Germany,47.870224,12.634569,Greifswald University,Greifswald,Germany,54.087591,13.390659,https://en.wikipedia.org/wiki/Johannes_Stark,0,4,230,0,14.0
1919,10/28/1920,133127,3006134,309.0,Jules Bordet,Jules Bordet,male,1.0,1.0,for his discoveries relating to immunity,Physiology or Medicine,1870-06-13,Soignies,Belgium,50.846558,4.351697,4/6/1961,Brussels,Belgium,50.849243,4.354815,Brussels University,Brussels,Belgium,50.849243,4.354815,https://en.wikipedia.org/wiki/Jules_Bordet,0,4,232,0,4.0
1920,11/10/1921,134100,3028106,178.0,Walther Nernst,Walther Hermann Nernst,male,1.0,1.0,in recognition of his work in thermochemistry,Chemistry,1864-06-25,Wąbrzeźno,Poland,53.283333,18.95,11/18/1941,Niwica,Poland,51.581944,14.843056,Berlin University,Berlin,Germany,52.522265,13.406852,https://en.wikipedia.org/wiki/Walther_Nernst,0,5,200,0,9.0
1920,10/28/1920,134100,3028106,310.0,August Krogh,Schack August Steenberg Krogh,male,1.0,1.0,for his discovery of the capillary motor regulating mechanism,Physiology or Medicine,1874-11-15,Grenå,Denmark,56.413333,10.875833,9/13/1949,Copenhagen,Denmark,55.678127,12.572532,Copenhagen University,Copenhagen,Denmark,55.678127,12.572532,https://en.wikipedia.org/wiki/August_Krogh,0,5,232,0,4.0
1920,11/11/1920,134100,3028106,589.0,Knut Hamsun,Knut Pedersen Hamsun,male,1.0,1.0,"for his monumental work, <I>Growth of the Soil</I>",Literature,1859-08-04,Lom,Norway,61.839236,8.565864,2/19/1952,Grimstad,Norway,58.341706,8.593663,,,,,,https://en.wikipedia.org/wiki/Knut_Hamsun,0,5,122,0,2.0
1920,11/11/1920,134100,3028106,25.0,Charles Edouard Guillaume,Charles Edouard Guillaume,male,1.0,1.0,in recognition of the service he has rendered to precision measurements in Physics by his discovery of anomalies in nickel steel alloys,Physics,1861-02-15,Fleurier,Switzerland,46.9,6.583306,6/13/1938,Sèvres,France,48.821281,2.209692,Bureau International des Poids et Mesures (International Bureau of Weights and Measures),Sèvres,France,48.821281,2.209692,https://en.wikipedia.org/wiki/Charles_Édouard_Guillaume,0,5,230,0,6.0
1920,12/10/1920,134100,3028106,484.0,Léon Bourgeois,Léon Victor Auguste Bourgeois,male,1.0,1.0,for his longstanding contribution to the cause of peace and justice and his prominent role in the establishment of the League of Nations,Peace,1851-05-21,Paris,France,48.860093,2.355954,9/29/1925,Épernay,France,49.043411,3.956242,,,,,,https://en.wikipedia.org/wiki/Léon_Bourgeois,0,5,112,0,16.0
1921,11/9/1922,121573,3202773,179.0,Frederick Soddy,Frederick Soddy,male,1.0,1.0,"for his contributions to our knowledge of the chemistry of radioactive substances, and his investigations into the origin and nature of isotopes",Chemistry,1877-09-02,Eastbourne,United Kingdom,50.766389,0.286111,9/22/1956,Brighton,United Kingdom,50.82442,-0.143821,University of Oxford,Oxford,United Kingdom,51.753363,-1.260979,https://en.wikipedia.org/wiki/Frederick_Soddy,0,5,200,0,6.0
1921,11/10/1921,121573,3202773,590.0,Anatole France,Anatole France,male,1.0,1.0,"in recognition of his brilliant literary achievements, characterized as they are by a nobility of style, a profound human sympathy, grace, and a true Gallic temperament",Literature,1844-04-16,Paris,France,48.860093,2.355954,10/12/1924,Saint-Cyr-sur-Loire,France,47.400002,0.6667,,,,,,https://en.wikipedia.org/wiki/Anatole_France,0,5,122,0,17.0
1921,12/10/1921,121573,3202773,485.0,Hjalmar Branting,Karl Hjalmar Branting,male,0.5,1.0,for their lifelong contributions to the cause of peace and organized internationalism,Peace,1860-11-23,Stockholm,Sweden,59.325371,18.070794,2/24/1925,Stockholm,Sweden,59.325371,18.070794,,,,,,https://en.wikipedia.org/wiki/Hjalmar_Branting,1,5,112,0,7.0
1921,12/10/1921,121573,3202773,486.0,Christian Lange,Christian Lous Lange,male,0.5,2.0,for their lifelong contributions to the cause of peace and organized internationalism,Peace,1869-09-17,Stavanger,Norway,58.97,5.731389,12/11/1938,Oslo,Norway,59.917165,10.750092,,,,,,https://en.wikipedia.org/wiki/Christian_Lous_Lange,1,5,112,0,3.0
1921,11/9/1922,121573,3202773,26.0,Albert Einstein,Albert Einstein,male,1.0,1.0,"for his services to Theoretical Physics, and especially for his discovery of the law of the photoelectric effect",Physics,1879-03-14,Ulm,Germany,48.401072,9.987585,4/18/1955,"Princeton, NJ",USA,40.359783,-74.668268,Kaiser-Wilhelm-Institut (now Max-Planck-Institut) für Physik,Berlin,Germany,52.522265,13.406852,https://en.wikipedia.org/wiki/Albert_Einstein,0,5,230,0,15.0
1922,11/9/1922,122483,3978181,592.0,Jacinto Benavente,Jacinto Benavente,male,1.0,1.0,for the happy manner in which he has continued the illustrious traditions of the Spanish drama,Literature,1866-08-12,Madrid,Spain,40.423203,-3.693965,7/14/1954,Madrid,Spain,40.423203,-3.693965,,,,,,https://en.wikipedia.org/wiki/Jacinto_Benavente,0,6,122,0,3.0
1922,12/10/1922,122483,3978181,487.0,Fridtjof Nansen,Fridtjof Nansen,male,1.0,1.0,"for his leading role in the repatriation of prisoners of war, in international relief work and as the League of Nations' High Commissioner for refugees",Peace,1861-10-10,Oslo,Norway,59.917165,10.750092,5/13/1930,Oslo,Norway,59.917165,10.750092,,,,,,https://en.wikipedia.org/wiki/Fridtjof_Nansen,0,6,112,0,4.0
1922,11/9/1922,122483,3978181,180.0,Francis W. Aston,Francis William Aston,male,1.0,1.0,"for his discovery, by means of his mass spectrograph, of isotopes, in a large number of non-radioactive elements, and for his enunciation of the whole-number rule",Chemistry,1877-09-01,Harborne,United Kingdom,52.45,-1.97,11/20/1945,Cambridge,United Kingdom,52.194605,0.135092,University of Cambridge,Cambridge,United Kingdom,52.194605,0.135092,https://en.wikipedia.org/wiki/Francis_William_Aston,0,6,200,0,7.0
1922,10/25/1922,122483,3978181,311.0,Archibald V. Hill,Archibald Vivian Hill,male,0.5,1.0,for his discovery relating to the production of heat in the muscle,Physiology or Medicine,1886-09-26,Bristol,United Kingdom,51.455112,-2.584545,6/3/1977,Cambridge,United Kingdom,52.194605,0.135092,London University,London,United Kingdom,51.510235,-0.120852,https://en.wikipedia.org/wiki/Archibald_Hill,1,6,232,0,8.0
1922,10/25/1922,122483,3978181,312.0,Otto Meyerhof,Otto Fritz Meyerhof,male,0.5,2.0,for his discovery of the fixed relationship between the consumption of oxygen and the metabolism of lactic acid in the muscle,Physiology or Medicine,1884-04-12,Hanover,Germany,52.374444,9.738611,10/6/1951,"Philadelphia, PA",USA,39.957132,-75.174342,Kiel University,Kiel,Germany,54.323168,10.121556,https://en.wikipedia.org/wiki/Otto_Fritz_Meyerhof,1,6,232,0,16.0
1922,11/9/1922,122483,3978181,27.0,Niels Bohr,Niels Henrik David Bohr,male,1.0,1.0,for his services in the investigation of the structure of atoms and of the radiation emanating from them,Physics,1885-10-07,Copenhagen,Denmark,55.678127,12.572532,11/18/1962,Copenhagen,Denmark,55.678127,12.572532,Copenhagen University,Copenhagen,Denmark,55.678127,12.572532,https://en.wikipedia.org/wiki/Niels_Bohr,0,6,230,0,5.0
1923,11/13/1923,114935,4007513,181.0,Fritz Pregl,Fritz Pregl,male,1.0,1.0,for his invention of the method of micro-analysis of organic substances,Chemistry,1869-09-03,Ljubljana,Slovenia,46.051389,14.506111,12/13/1930,Graz,Austria,47.071923,15.443848,Graz University,Graz,Austria,47.071923,15.443848,https://en.wikipedia.org/wiki/Fritz_Pregl,0,5,200,0,1.0
1923,11/14/1923,114935,4007513,593.0,William Butler Yeats,William Butler Yeats,male,1.0,1.0,"for his always inspired poetry, which in a highly artistic form gives expression to the spirit of a whole nation",Literature,1865-06-13,Dublin,Ireland,53.351676,-6.261504,1/28/1939,Roquebrune-Cap-Martin,France,43.757808,7.473754,,,,,,https://en.wikipedia.org/wiki/W._B._Yeats,0,5,122,0,1.0
1923,11/13/1923,114935,4007513,28.0,Robert A. Millikan,Robert Andrews Millikan,male,1.0,1.0,for his work on the elementary charge of electricity and on the photoelectric effect,Physics,1868-03-22,"Morrison, IL",USA,41.807641,-89.961705,12/19/1953,"San Marino, CA",USA,34.121397,-118.106459,California Institute of Technology (Caltech),"Pasadena, CA",USA,34.150071,-118.142111,https://en.wikipedia.org/wiki/Robert_Andrews_Millikan,0,5,230,0,5.0
1923,10/25/1923,114935,4007513,313.0,Frederick G. Banting,Frederick Grant Banting,male,0.5,1.0,for the discovery of insulin,Physiology or Medicine,1891-11-14,Alliston,Canada,44.153947,-79.869022,2/21/1941,Newfoundland,Canada,53.0,-60.0,University of Toronto,Toronto,Canada,43.654211,-79.384956,https://en.wikipedia.org/wiki/Frederick_Banting,1,5,232,0,1.0
1923,10/25/1923,114935,4007513,314.0,John Macleod,John James Rickard Macleod,male,0.5,2.0,for the discovery of insulin,Physiology or Medicine,1876-09-06,Cluny,Scotland,46.429117,4.664877,3/16/1935,Aberdeen,Scotland,57.148243,-2.092809,University of Toronto,Toronto,Canada,43.654211,-79.384956,https://en.wikipedia.org/wiki/John_James_Rickard_Macleod,1,5,232,0,2.0
1924,11/13/1924,116719,4069717,594.0,Władysław Reymont,Władysław Stanisław Reymont,male,1.0,1.0,"for his great national epic, <I>The Peasants</I>",Literature,1867-05-07,Kobiele Wielkie,Poland,51.042154,19.556849,12/5/1925,Warsaw,Poland,52.230046,21.011995,,,,,,https://en.wikipedia.org/wiki/Władysław_Reymont,0,3,122,0,10.0
1924,11/12/1925,116719,4069717,29.0,Manne Siegbahn,Karl Manne Georg Siegbahn,male,1.0,1.0,for his discoveries and research in the field of X-ray spectroscopy,Physics,1886-12-03,Örebro,Sweden,59.266926,15.196522,9/26/1978,Stockholm,Sweden,59.325371,18.070794,Uppsala University,Uppsala,Sweden,59.858503,17.638748,https://en.wikipedia.org/wiki/Manne_Siegbahn,0,3,230,0,8.0
1924,10/23/1924,116719,4069717,315.0,Willem Einthoven,Willem Einthoven,male,1.0,1.0,for his discovery of the mechanism of the electrocardiogram,Physiology or Medicine,1860-05-21,Semarang,Indonesia,-7.004978,110.438095,9/29/1927,Leiden,the Netherlands,52.160787,4.495746,Leiden University,Leiden,the Netherlands,52.160787,4.495746,https://en.wikipedia.org/wiki/Willem_Einthoven,0,3,232,0,1.0
1925,12/10/1926,118165,4060423,488.0,Sir Austen Chamberlain,Sir Austen Chamberlain,male,0.5,1.0,for his crucial role in bringing about the Locarno Treaty,Peace,1863-10-16,Birmingham,United Kingdom,52.48561,-1.885354,3/16/1937,London,United Kingdom,51.510235,-0.120852,,,,,,https://en.wikipedia.org/wiki/Austen_Chamberlain,1,6,112,0,9.0
1925,11/11/1926,118165,4060423,596.0,George Bernard Shaw,George Bernard Shaw,male,1.0,1.0,"for his work which is marked by both idealism and humanity, its stimulating satire often being infused with a singular poetic beauty",Literature,1856-07-26,Dublin,Ireland,53.351676,-6.261504,11/2/1950,Ayot St. Lawrence,United Kingdom,51.8333,-0.25,,,,,,https://en.wikipedia.org/wiki/George_Bernard_Shaw,0,6,122,0,2.0
1925,11/11/1926,118165,4060423,182.0,Richard Zsigmondy,Richard Adolf Zsigmondy,male,1.0,1.0,"for his demonstration of the heterogenous nature of colloid solutions and for the methods he used, which have since become fundamental in modern colloid chemistry",Chemistry,1865-04-01,Vienna,Austria,48.207646,16.372793,9/24/1929,Göttingen,Germany,51.539385,9.913113,Goettingen University,Göttingen,Germany,51.539385,9.913113,https://en.wikipedia.org/wiki/Richard_Adolf_Zsigmondy,0,6,200,0,3.0
1925,12/10/1926,118165,4060423,489.0,Charles G. Dawes,Charles Gates Dawes,male,0.5,2.0,for his crucial role in bringing about the Dawes Plan,Peace,1865-08-27,"Marietta, OH",USA,39.420611,-81.450306,4/23/1951,"Evanston, IL",USA,42.045791,-87.686963,,,,,,https://en.wikipedia.org/wiki/Charles_G._Dawes,1,6,112,0,6.0
1925,11/11/1926,118165,4060423,31.0,Gustav Hertz,Gustav Ludwig Hertz,male,0.5,2.0,for their discovery of the laws governing the impact of an electron upon an atom,Physics,1887-07-22,Hamburg,Germany,53.548276,9.987422,10/30/1975,Berlin,Germany,52.522265,13.406852,Halle University,Halle,Germany,51.495345,11.965363,https://en.wikipedia.org/wiki/Gustav_Ludwig_Hertz,1,6,230,0,17.0
1925,11/11/1926,118165,4060423,30.0,James Franck,James Franck,male,0.5,1.0,for their discovery of the laws governing the impact of an electron upon an atom,Physics,1882-08-26,Hamburg,Germany,53.548276,9.987422,5/21/1964,Göttingen,Germany,51.539385,9.913113,Goettingen University,Göttingen,Germany,51.539385,9.913113,https://en.wikipedia.org/wiki/James_Franck,1,6,230,0,18.0
1926,11/11/1926,116960,4138987,183.0,The Svedberg,The (Theodor) Svedberg,male,1.0,1.0,for his work on disperse systems,Chemistry,1884-08-30,Fleräng,Sweden,,,2/25/1971,Örebro,Sweden,59.266926,15.196522,Uppsala University,Uppsala,Sweden,59.858503,17.638748,https://en.wikipedia.org/wiki/Theodor_Svedberg,0,6,200,0,9.0
1926,11/10/1927,116960,4138987,597.0,Grazia Deledda,Grazia Deledda,female,1.0,1.0,for her idealistically inspired writings which with plastic clarity picture the life on her native island and with depth and sympathy deal with human problems in general,Literature,1871-09-27,"Nuoro, Sardinia",Italy,40.32035,9.326072,8/15/1936,Rome,Italy,41.902288,12.506464,,,,,,https://en.wikipedia.org/wiki/Grazia_Deledda,0,6,122,0,5.0
1926,12/10/1926,116960,4138987,490.0,Aristide Briand,Aristide Briand,male,0.5,1.0,for their crucial role in bringing about the Locarno Treaty,Peace,1862-03-28,Nantes,France,47.217222,-1.553889,3/7/1932,Paris,France,48.860093,2.355954,,,,,,https://en.wikipedia.org/wiki/Aristide_Briand,1,6,112,0,18.0
1926,12/10/1926,116960,4138987,491.0,Gustav Stresemann,Gustav Stresemann,male,0.5,2.0,for their crucial role in bringing about the Locarno Treaty,Peace,1878-05-10,Berlin,Germany,52.522265,13.406852,10/3/1929,Berlin,Germany,52.522265,13.406852,,,,,,https://en.wikipedia.org/wiki/Gustav_Stresemann,1,6,112,0,19.0
1926,11/11/1926,116960,4138987,32.0,Jean Baptiste Perrin,Jean Baptiste Perrin,male,1.0,1.0,"for his work on the discontinuous structure of matter, and especially for his discovery of sedimentation equilibrium",Physics,1870-09-30,Lille,France,50.631944,3.0575,4/17/1942,"New York, NY",USA,40.715758,-74.0113,Sorbonne University,Paris,France,48.860093,2.355954,https://en.wikipedia.org/wiki/Jean_Baptiste_Perrin,0,6,230,0,19.0
1926,10/27/1927,116960,4138987,316.0,Johannes Fibiger,Johannes Andreas Grib Fibiger,male,1.0,1.0,for his discovery of the Spiroptera carcinoma,Physiology or Medicine,1867-04-23,Silkeborg,Denmark,56.166667,9.55,1/30/1928,Copenhagen,Denmark,55.678127,12.572532,Copenhagen University,Copenhagen,Denmark,55.678127,12.572532,https://en.wikipedia.org/wiki/Johannes_Fibiger,0,6,232,0,6.0
1927,11/13/1928,126501,4544453,184.0,Heinrich Wieland,Heinrich Otto Wieland,male,1.0,1.0,for his investigations of the constitution of the bile acids and related substances,Chemistry,1877-06-04,Pforzheim,Germany,48.895,8.705,8/5/1957,Munich,Germany,48.134703,11.581995,Munich University,Munich,Germany,48.134703,11.581995,https://en.wikipedia.org/wiki/Heinrich_Otto_Wieland,0,7,200,0,20.0
1927,11/13/1928,126501,4544453,600.0,Henri Bergson,Henri Bergson,male,1.0,1.0,in recognition of his rich and vitalizing ideas and the brilliant skill with which they have been presented,Literature,1859-10-18,Paris,France,48.860093,2.355954,1/4/1941,Paris,France,48.860093,2.355954,,,,,,https://en.wikipedia.org/wiki/Henri_Bergson,0,7,122,0,20.0
1927,10/27/1927,126501,4544453,317.0,Julius Wagner-Jauregg,Julius Wagner-Jauregg,male,1.0,1.0,for his discovery of the therapeutic value of malaria inoculation in the treatment of dementia paralytica,Physiology or Medicine,1857-03-07,Wels,Austria,48.15,14.016667,9/27/1940,Vienna,Austria,48.207646,16.372793,Vienna University,Vienna,Austria,48.207646,16.372793,https://en.wikipedia.org/wiki/Julius_Wagner-Jauregg,0,7,232,0,4.0
1927,12/10/1927,126501,4544453,492.0,Ferdinand Buisson,Ferdinand Buisson,male,0.5,1.0,for their contribution to the emergence in France and Germany of a public opinion which favours peaceful international cooperation,Peace,1841-12-20,Paris,France,48.860093,2.355954,2/16/1932,Thieuloy-Saint-Antoine,France,49.634167,1.946111,,,,,,https://en.wikipedia.org/wiki/Ferdinand_Buisson,1,7,112,0,21.0
1927,11/10/1927,126501,4544453,33.0,Arthur H. Compton,Arthur Holly Compton,male,0.5,1.0,for his discovery of the effect named after him,Physics,1892-09-10,"Wooster, OH",USA,40.809194,-81.937194,3/15/1962,"Berkeley, CA",USA,37.87179,-122.274715,University of Chicago,"Chicago, IL",USA,41.876228,-87.638416,https://en.wikipedia.org/wiki/Arthur_Compton,1,7,230,0,7.0
1927,11/10/1927,126501,4544453,34.0,C.T.R. Wilson,Charles Thomson Rees Wilson,male,0.5,2.0,for his method of making the paths of electrically charged particles visible by condensation of vapour,Physics,1869-02-14,Glencorse,Scotland,55.850833,-3.204167,11/15/1959,Carlops,Scotland,55.826397,-3.251207,University of Cambridge,Cambridge,United Kingdom,52.194605,0.135092,https://en.wikipedia.org/wiki/Charles_Thomson_Rees_Wilson,1,7,230,0,3.0
1927,12/10/1927,126501,4544453,493.0,Ludwig Quidde,Ludwig Quidde,male,0.5,2.0,for their contribution to the emergence in France and Germany of a public opinion which favours peaceful international cooperation,Peace,1858-03-23,Bremen,Germany,53.076944,8.808889,3/4/1941,Geneva,Switzerland,46.203397,6.145957,,,,,,https://en.wikipedia.org/wiki/Ludwig_Quidde,1,7,112,0,21.0
1928,11/13/1928,156939,5637915,185.0,Adolf Windaus,Adolf Otto Reinhold Windaus,male,1.0,1.0,for the services rendered through his research into the constitution of the sterols and their connection with the vitamins,Chemistry,1876-12-25,Berlin,Germany,52.522265,13.406852,6/9/1959,Göttingen,Germany,51.539385,9.913113,Goettingen University,Göttingen,Germany,51.539385,9.913113,https://en.wikipedia.org/wiki/Adolf_Otto_Reinhold_Windaus,0,4,200,0,22.0
1928,11/13/1928,156939,5637915,601.0,Sigrid Undset,Sigrid Undset,female,1.0,1.0,principally for her powerful descriptions of Northern life during the Middle Ages,Literature,1882-05-20,Kalundborg,Denmark,55.685589,11.091902,6/10/1949,Lillehammer,Norway,61.115305,10.4668,,,,,,https://en.wikipedia.org/wiki/Sigrid_Undset,0,4,122,0,7.0
1928,11/12/1929,156939,5637915,35.0,Owen Willans Richardson,Owen Willans Richardson,male,1.0,1.0,for his work on the thermionic phenomenon and especially for the discovery of the law named after him,Physics,1879-04-26,Dewsbury,United Kingdom,53.683333,-1.633333,2/15/1959,Alton,United Kingdom,51.149722,-0.976944,London University,London,United Kingdom,51.510235,-0.120852,https://en.wikipedia.org/wiki/Owen_Willans_Richardson,0,4,230,0,10.0
1928,10/25/1928,156939,5637915,318.0,Charles Nicolle,Charles Jules Henri Nicolle,male,1.0,1.0,for his work on typhus,Physiology or Medicine,1866-09-21,Rouen,France,49.443056,1.1025,2/28/1936,Tunis,Tunisia,36.810714,10.181034,Institut Pasteur,Tunis,Tunisia,36.810714,10.181034,https://en.wikipedia.org/wiki/Charles_Nicolle,0,4,232,0,22.0
1929,11/12/1929,172760,6206272,186.0,Arthur Harden,Arthur Harden,male,0.5,1.0,for their investigations on the fermentation of sugar and fermentative enzymes,Chemistry,1865-10-12,Manchester,United Kingdom,53.478756,-2.245094,6/17/1940,Bourne,United Kingdom,52.7684,-0.3775,London University,London,United Kingdom,51.510235,-0.120852,https://en.wikipedia.org/wiki/Arthur_Harden,1,7,200,0,11.0
1929,11/12/1929,172760,6206272,187.0,Hans von Euler-Chelpin,Hans Karl August Simon von Euler-Chelpin,male,0.5,2.0,for their investigations on the fermentation of sugar and fermentative enzymes,Chemistry,1873-02-15,Augsburg,Germany,48.370459,10.898174,11/6/1964,Stockholm,Sweden,59.325371,18.070794,Stockholm University,Stockholm,Sweden,59.325371,18.070794,https://en.wikipedia.org/wiki/Hans_von_Euler-Chelpin,1,7,200,0,23.0
1929,11/12/1929,172760,6206272,602.0,Thomas Mann,Thomas Mann,male,1.0,1.0,"principally for his great novel, <I>Buddenbrooks</I>, which has won steadily increased recognition as one of the classic works of contemporary literature",Literature,1875-06-06,Lübeck,Germany,53.869722,10.686389,8/12/1955,Zurich,Switzerland,47.376909,8.541697,,,,,,https://en.wikipedia.org/wiki/Thomas_Mann,0,7,122,0,24.0
1929,12/10/1930,172760,6206272,494.0,Frank B. Kellogg,Frank Billings Kellogg,male,1.0,1.0,for his crucial role in bringing about the Briand-Kellogg Pact,Peace,1856-12-22,"Potsdam, NY",USA,44.669722,-74.981111,12/21/1937,"St. Paul, MN",USA,44.944167,-93.093611,,,,,,https://en.wikipedia.org/wiki/Frank_B._Kellogg,0,7,112,0,8.0
1929,11/12/1929,172760,6206272,36.0,Louis de Broglie,Prince Louis-Victor Pierre Raymond de Broglie,male,1.0,1.0,for his discovery of the wave nature of electrons,Physics,1892-08-15,Dieppe,France,49.925,1.075,3/19/1987,Paris,France,48.860093,2.355954,"Sorbonne University, Institut Henri Poincaré",Paris,France,48.860093,2.355954,https://en.wikipedia.org/wiki/Louis_de_Broglie,0,7,230,0,23.0
1929,10/31/1929,172760,6206272,319.0,Christiaan Eijkman,Christiaan Eijkman,male,0.5,1.0,for his discovery of the antineuritic vitamin,Physiology or Medicine,1858-08-11,Nijkerk,the Netherlands,52.090702,5.121563,11/5/1930,Utrecht,the Netherlands,52.090276,5.120942,Utrecht University,Utrecht,the Netherlands,52.090276,5.120942,https://en.wikipedia.org/wiki/Christiaan_Eijkman,1,7,232,0,7.0
1929,10/31/1929,172760,6206272,320.0,Sir Frederick Hopkins,Sir Frederick Gowland Hopkins,male,0.5,2.0,for his discovery of the growth-stimulating vitamins,Physiology or Medicine,1861-06-20,Eastbourne,United Kingdom,50.766389,0.286111,5/16/1947,Cambridge,United Kingdom,52.194605,0.135092,University of Cambridge,Cambridge,United Kingdom,52.194605,0.135092,https://en.wikipedia.org/wiki/Frederick_Gowland_Hopkins,1,7,232,0,12.0
1930,11/5/1930,172947,6407146,603.0,Sinclair Lewis,Sinclair Lewis,male,1.0,1.0,"for his vigorous and graphic art of description and his ability to create, with wit and humour, new types of characters",Literature,1885-02-07,"Sauk Centre, MN",USA,45.736389,-94.954167,1/10/1951,Rome,Italy,41.902288,12.506464,,,,,,https://en.wikipedia.org/wiki/Sinclair_Lewis,0,5,122,0,9.0
1930,11/13/1930,172947,6407146,37.0,Sir Chandrasekhara Venkata Raman,Sir Chandrasekhara Venkata Raman,male,1.0,1.0,for his work on the scattering of light and for the discovery of the effect named after him,Physics,1888-11-07,Tiruchirappalli,India,12.97912,77.591301,11/21/1970,Bangalore,India,12.971599,77.594563,Calcutta University,Calcutta,India,22.579858,88.368101,https://en.wikipedia.org/wiki/C._V._Raman,0,5,230,0,4.0
1930,11/13/1930,172947,6407146,188.0,Hans Fischer,Hans Fischer,male,1.0,1.0,for his researches into the constitution of haemin and chlorophyll and especially for his synthesis of haemin,Chemistry,1881-07-27,Hoechst,Germany,50.098889,8.546667,3/31/1945,Munich,Germany,48.134703,11.581995,Technische Hochschule (Institute of Technology),Munich,Germany,48.134703,11.581995,https://en.wikipedia.org/wiki/Hans_Fischer,0,5,200,0,25.0
1930,10/30/1930,172947,6407146,321.0,Karl Landsteiner,Karl Landsteiner,male,1.0,1.0,for his discovery of human blood groups,Physiology or Medicine,1868-06-14,Vienna,Austria,48.207646,16.372793,6/26/1943,"New York, NY",USA,40.715758,-74.0113,Rockefeller Institute for Medical Research,"New York, NY",USA,40.715758,-74.0113,https://en.wikipedia.org/wiki/Karl_Landsteiner,0,5,232,0,5.0
1930,12/10/1930,172947,6407146,495.0,Nathan Söderblom,Lars Olof Jonathan (Nathan) Söderblom,male,1.0,1.0,for promoting Christian unity and helping create 'that new attitude of mind which is necessary if peace between nations is to become reality',Peace,1866-01-15,Trönö,Sweden,61.394789,16.836136,7/12/1931,Uppsala,Sweden,59.858503,17.638748,,,,,,https://en.wikipedia.org/wiki/Nathan_Söderblom,0,5,112,0,10.0
1931,11/12/1931,173206,6623733,189.0,Carl Bosch,Carl Bosch,male,0.5,1.0,in recognition of their contributions to the invention and development of chemical high pressure methods,Chemistry,1874-08-27,Cologne,Germany,50.938552,6.957702,4/26/1940,Heidelberg,Germany,49.39922,8.680522,University of Heidelberg,Heidelberg,Germany,49.39922,8.680522,https://en.wikipedia.org/wiki/Carl_Bosch,1,6,200,0,26.0
1931,11/12/1931,173206,6623733,190.0,Friedrich Bergius,Friedrich Bergius,male,0.5,2.0,in recognition of their contributions to the invention and development of chemical high pressure methods,Chemistry,1884-10-11,"Goldschmieden, near Breslau",Poland,,,3/30/1949,Buenos Aires,Argentina,-34.603443,-58.396729,University of Heidelberg,Heidelberg,Germany,49.39922,8.680522,https://en.wikipedia.org/wiki/Friedrich_Bergius,1,6,200,0,11.0
1931,11/8/1931,173206,6623733,604.0,Erik Axel Karlfeldt,Erik Axel Karlfeldt,male,1.0,1.0,The poetry of Erik Axel Karlfeldt,Literature,1864-07-20,Karlbo,Sweden,60.116667,16.233333,4/8/1931,Stockholm,Sweden,59.325371,18.070794,,,,,,https://en.wikipedia.org/wiki/Erik_Axel_Karlfeldt,0,6,122,0,11.0
1931,12/10/1931,173206,6623733,496.0,Jane Addams,Jane Addams,female,0.5,1.0,for their assiduous effort to revive the ideal of peace and to rekindle the spirit of peace in their own nation and in the whole of mankind,Peace,1860-09-06,"Cedarville, IL",USA,42.375,-89.633889,5/21/1935,"Chicago, IL",USA,41.876228,-87.638416,,,,,,https://en.wikipedia.org/wiki/Jane_Addams,1,6,112,0,10.0
1931,12/10/1931,173206,6623733,497.0,Nicholas Murray Butler,Nicholas Murray Butler,male,0.5,2.0,for their assiduous effort to revive the ideal of peace and to rekindle the spirit of peace in their own nation and in the whole of mankind,Peace,1862-04-02,"Elizabeth, NJ",USA,40.662222,-74.209167,12/7/1947,"New York, NY",USA,40.715758,-74.0113,Columbia University,"New York, NY",USA,40.715758,-74.0113,https://en.wikipedia.org/wiki/Nicholas_Murray_Butler,1,6,112,0,11.0
1931,10/29/1931,173206,6623733,322.0,Otto Warburg,Otto Heinrich Warburg,male,1.0,1.0,for his discovery of the nature and mode of action of the respiratory enzyme,Physiology or Medicine,1883-10-08,Freiburg im Breisgau,Germany,47.995,7.85,8/1/1970,West Berlin,Germany,52.454352,13.293685,Kaiser-Wilhelm-Institut (now Max-Planck-Institut) für Biologie,Berlin-Dahlem,Germany,52.453739,13.29313,https://en.wikipedia.org/wiki/Otto_Heinrich_Warburg,0,6,232,0,27.0
1932,11/10/1932,171753,6675842,191.0,Irving Langmuir,Irving Langmuir,male,1.0,1.0,for his discoveries and investigations in surface chemistry,Chemistry,1881-01-31,"Brooklyn, NY",USA,40.676379,-73.949819,8/16/1957,"Falmouth, MA",USA,41.553221,-70.608589,General Electric Company,"Schenectady, NY",USA,42.814412,-73.932739,https://en.wikipedia.org/wiki/Irving_Langmuir,0,5,200,0,12.0
1932,11/10/1932,171753,6675842,605.0,John Galsworthy,John Galsworthy,male,1.0,1.0,for his distinguished art of narration which takes its highest form in <I>The Forsyte Saga</I>,Literature,1867-08-14,Kingston Hill,United Kingdom,,,1/31/1933,London,United Kingdom,51.510235,-0.120852,,,,,,https://en.wikipedia.org/wiki/John_Galsworthy,0,5,122,0,13.0
1932,11/9/1933,171753,6675842,38.0,Werner Heisenberg,Werner Karl Heisenberg,male,1.0,1.0,"for the creation of quantum mechanics, the application of which has, inter alia, led to the discovery of the allotropic forms of hydrogen",Physics,12/5/1901,Würzburg,Germany,49.791282,9.953253,2/1/1976,Munich,Germany,48.134703,11.581995,Leipzig University,Leipzig,Germany,51.339522,12.384015,https://en.wikipedia.org/wiki/Werner_Heisenberg,0,5,230,0,28.0
1932,10/27/1932,171753,6675842,323.0,Sir Charles Sherrington,Sir Charles Scott Sherrington,male,0.5,1.0,for their discoveries regarding the functions of neurons,Physiology or Medicine,1857-11-27,London,United Kingdom,51.510235,-0.120852,3/4/1952,Eastbourne,United Kingdom,50.766389,0.286111,University of Oxford,Oxford,United Kingdom,51.753363,-1.260979,https://en.wikipedia.org/wiki/Charles_Scott_Sherrington,1,5,232,0,14.0
1932,10/27/1932,171753,6675842,324.0,Edgar Adrian,Edgar Douglas Adrian,male,0.5,2.0,for their discoveries regarding the functions of neurons,Physiology or Medicine,1889-11-30,London,United Kingdom,51.510235,-0.120852,8/8/1977,Cambridge,United Kingdom,52.194605,0.135092,University of Cambridge,Cambridge,United Kingdom,52.194605,0.135092,"https://en.wikipedia.org/wiki/Edgar_Adrian,_1st_Baron_Adrian",1,5,232,0,15.0
1933,12/10/1934,170332,6845037,498.0,Sir Norman Angell,Sir Norman Angell (Ralph Lane),male,1.0,1.0,for having exposed by his pen the illusion of war and presented a convincing plea for international cooperation and peace,Peace,1872-12-26,Holbeach,United Kingdom,52.803611,0.015278,10/7/1967,Croydon,United Kingdom,51.376165,-0.098234,,,,,,https://en.wikipedia.org/wiki/Norman_Angell,0,5,112,0,16.0
1933,11/9/1933,170332,6845037,606.0,Ivan Bunin,Ivan Alekseyevich Bunin,male,1.0,1.0,for the strict artistry with which he has carried on the classical Russian traditions in prose writing,Literature,1870-10-22,Voronezh,Russia,51.664796,39.195239,11/8/1953,Paris,France,48.860093,2.355954,,,,,,https://en.wikipedia.org/wiki/Ivan_Bunin,0,5,122,0,4.0
1933,11/9/1933,170332,6845037,39.0,Erwin Schrödinger,Erwin Schrödinger,male,0.5,1.0,for the discovery of new productive forms of atomic theory,Physics,1887-08-12,Vienna,Austria,48.207646,16.372793,1/4/1961,Vienna,Austria,48.207646,16.372793,Berlin University,Berlin,Germany,52.522265,13.406852,https://en.wikipedia.org/wiki/Erwin_Schrödinger,1,5,230,0,6.0
1933,10/20/1933,170332,6845037,325.0,Thomas H. Morgan,Thomas Hunt Morgan,male,1.0,1.0,for his discoveries concerning the role played by the chromosome in heredity,Physiology or Medicine,1866-09-25,"Lexington, KY",USA,38.029722,-84.494722,12/4/1945,"Pasadena, CA",USA,34.150071,-118.142111,California Institute of Technology (Caltech),"Pasadena, CA",USA,34.150071,-118.142111,https://en.wikipedia.org/wiki/Thomas_Hunt_Morgan,0,5,232,0,13.0
1933,11/9/1933,170332,6845037,40.0,Paul A.M. Dirac,Paul Adrien Maurice Dirac,male,0.5,2.0,for the discovery of new productive forms of atomic theory,Physics,8/8/1902,Bristol,United Kingdom,51.455112,-2.584545,10/20/1984,"Tallahassee, FL",USA,30.438256,-84.280733,University of Cambridge,Cambridge,United Kingdom,52.194605,0.135092,https://en.wikipedia.org/wiki/Paul_Dirac,1,5,230,0,17.0
1934,11/15/1934,162608,6534637,192.0,Harold C. Urey,Harold Clayton Urey,male,1.0,1.0,for his discovery of heavy hydrogen,Chemistry,1893-04-29,"Walkerton, IN",USA,41.463889,-86.484389,1/5/1981,"La Jolla, CA",USA,32.832367,-117.265117,Columbia University,"New York, NY",USA,40.715758,-74.0113,https://en.wikipedia.org/wiki/Harold_Urey,0,6,200,0,14.0
1934,11/8/1934,162608,6534637,607.0,Luigi Pirandello,Luigi Pirandello,male,1.0,1.0,for his bold and ingenious revival of dramatic and scenic art,Literature,1867-06-28,"Agrigento, Sicily",Italy,37.311075,13.576547,12/10/1936,Rome,Italy,41.902288,12.506464,,,,,,https://en.wikipedia.org/wiki/Luigi_Pirandello,0,6,122,0,6.0
1934,12/10/1934,162608,6534637,499.0,Arthur Henderson,Arthur Henderson,male,1.0,1.0,for his untiring struggle and his courageous efforts as Chairman of the League of Nations Disarmament Conference 1931-34,Peace,1863-09-13,Glasgow,Scotland,55.861111,-4.25,10/20/1935,London,United Kingdom,51.510235,-0.120852,,,,,,https://en.wikipedia.org/wiki/Arthur_Henderson,0,6,112,0,4.0
1934,10/25/1934,162608,6534637,326.0,George H. Whipple,George Hoyt Whipple,male,0.333333,1.0,for their discoveries concerning liver therapy in cases of anaemia,Physiology or Medicine,1878-08-28,"Ashland, NH",USA,43.695271,-71.63074,2/1/1976,"Rochester, NY",USA,43.156356,-77.599235,University of Rochester,"Rochester, NY",USA,43.156356,-77.599235,https://en.wikipedia.org/wiki/George_Whipple,1,6,232,0,15.0
1934,10/25/1934,162608,6534637,327.0,George R. Minot,George Richards Minot,male,0.333333,2.0,for their discoveries concerning liver therapy in cases of anaemia,Physiology or Medicine,1885-12-02,"Boston, MA",USA,42.36042,-71.05681,2/25/1950,"Brookline, MA",USA,42.331764,-71.121163,Harvard University,"Cambridge, MA",USA,42.374024,-71.107306,https://en.wikipedia.org/wiki/George_Minot,1,6,232,0,16.0
1934,10/25/1934,162608,6534637,328.0,William P. Murphy,William Parry Murphy,male,0.333333,3.0,for their discoveries concerning liver therapy in cases of anaemia,Physiology or Medicine,1892-02-06,"Stoughton, WI",USA,42.916946,-89.217894,10/9/1987,"Brookline, MA",USA,42.331764,-71.121163,Harvard University,"Cambridge, MA",USA,42.374024,-71.107306,https://en.wikipedia.org/wiki/William_P._Murphy,1,6,232,0,17.0
1935,11/14/1935,159917,6319387,193.0,Frédéric Joliot,Frédéric Joliot,male,0.5,1.0,in recognition of their synthesis of new radioactive elements,Chemistry,3/19/1900,Paris,France,48.860093,2.355954,8/14/1958,Paris,France,48.860093,2.355954,Institut du Radium,Paris,France,48.860093,2.355954,https://en.wikipedia.org/wiki/Frédéric_Joliot-Curie,1,5,200,0,24.0
1935,11/14/1935,159917,6319387,194.0,Irène Joliot-Curie,Irène Joliot-Curie,female,0.5,2.0,in recognition of their synthesis of new radioactive elements,Chemistry,1897-09-12,Paris,France,48.860093,2.355954,3/17/1956,Paris,France,48.860093,2.355954,Institut du Radium,Paris,France,48.860093,2.355954,https://en.wikipedia.org/wiki/Irène_Joliot-Curie,1,5,200,0,25.0
1935,11/24/1936,159917,6319387,500.0,Carl von Ossietzky,Carl von Ossietzky,male,1.0,1.0,for his burning love for freedom of thought and expression and his valuable contribution to the cause of peace,Peace,1889-10-03,Hamburg,Germany,53.548276,9.987422,5/4/1938,Berlin,Germany,52.522265,13.406852,,,,,,https://en.wikipedia.org/wiki/Carl_von_Ossietzky,0,5,112,0,29.0
1935,11/14/1935,159917,6319387,41.0,James Chadwick,James Chadwick,male,1.0,1.0,for the discovery of the neutron,Physics,1891-10-20,Manchester,United Kingdom,53.478756,-2.245094,7/24/1974,Cambridge,United Kingdom,52.194605,0.135092,Liverpool University,Liverpool,United Kingdom,53.409188,-2.981257,https://en.wikipedia.org/wiki/James_Chadwick,0,5,230,0,18.0
1935,10/24/1935,159917,6319387,329.0,Hans Spemann,Hans Spemann,male,1.0,1.0,for his discovery of the organizer effect in embryonic development,Physiology or Medicine,1869-06-27,Stuttgart,Germany,48.775924,9.182014,9/12/1941,Freiburg im Breisgau,Germany,47.995,7.85,University of Freiburg im Breisgau,Breisgau,Germany,47.999459,7.84517,https://en.wikipedia.org/wiki/Hans_Spemann,0,5,232,0,30.0
1936,11/12/1936,159850,6213186,195.0,Peter Debye,Petrus (Peter) Josephus Wilhelmus Debye,male,1.0,1.0,for his contributions to our knowledge of molecular structure through his investigations on dipole moments and on the diffraction of X-rays and electrons in gases,Chemistry,1884-03-24,Maastricht,the Netherlands,50.866667,5.683333,11/2/1966,"Ithaca, NY",USA,42.444089,-76.50095,Berlin University,Berlin,Germany,52.522265,13.406852,https://en.wikipedia.org/wiki/Peter_Debye,0,7,200,0,8.0
1936,11/24/1936,159850,6213186,501.0,Carlos Saavedra Lamas,Carlos Saavedra Lamas,male,1.0,1.0,"for his role as father of the Argentine Antiwar Pact of 1933, which he also used as a means to mediate peace between Paraguay and Bolivia in 1935",Peace,1878-11-01,Buenos Aires,Argentina,-34.603443,-58.396729,5/5/1959,Buenos Aires,Argentina,-34.603443,-58.396729,,,,,,https://en.wikipedia.org/wiki/Carlos_Saavedra_Lamas,0,7,112,0,1.0
1936,11/12/1936,159850,6213186,608.0,Eugene O'Neill,Eugene Gladstone O'Neill,male,1.0,1.0,"for the power, honesty and deep-felt emotions of his dramatic works, which embody an original concept of tragedy",Literature,1888-10-16,"New York, NY",USA,40.715758,-74.0113,11/27/1953,"Boston, MA",USA,42.36042,-71.05681,,,,,,https://en.wikipedia.org/wiki/Eugene_O'Neill,0,7,122,0,18.0
1936,11/12/1936,159850,6213186,42.0,Victor F. Hess,Victor Franz Hess,male,0.5,1.0,for his discovery of cosmic radiation,Physics,1883-06-24,Peggau,Austria,47.176373,15.32994,12/17/1964,"Mount Vernon, NY",USA,40.914167,-73.830556,Innsbruck University,Innsbruck,Austria,47.26982,11.404881,https://en.wikipedia.org/wiki/Victor_Francis_Hess,1,7,230,0,7.0
1936,10/29/1936,159850,6213186,330.0,Sir Henry Dale,Sir Henry Hallett Dale,male,0.5,1.0,for their discoveries relating to chemical transmission of nerve impulses,Physiology or Medicine,1875-06-09,London,United Kingdom,51.510235,-0.120852,7/23/1968,Cambridge,United Kingdom,52.194605,0.135092,National Institute for Medical Research,London,United Kingdom,51.510235,-0.120852,https://en.wikipedia.org/wiki/Henry_Hallett_Dale,1,7,232,0,19.0
1936,11/12/1936,159850,6213186,43.0,Carl D. Anderson,Carl David Anderson,male,0.5,2.0,for his discovery of the positron,Physics,9/3/1905,"New York, NY",USA,40.715758,-74.0113,1/11/1991,"San Marino, CA",USA,34.121397,-118.106459,California Institute of Technology (Caltech),"Pasadena, CA",USA,34.150071,-118.142111,https://en.wikipedia.org/wiki/Carl_David_Anderson,1,7,230,0,19.0
1936,10/29/1936,159850,6213186,331.0,Otto Loewi,Otto Loewi,male,0.5,2.0,for their discoveries relating to chemical transmission of nerve impulses,Physiology or Medicine,1873-06-03,Frankfurt-on-the-Main,Germany,50.107886,8.691488,12/25/1961,"New York, NY",USA,40.715758,-74.0113,Graz University,Graz,Austria,47.071923,15.443848,https://en.wikipedia.org/wiki/Otto_Loewi,1,7,232,0,31.0
1937,11/11/1937,158463,5963742,196.0,Norman Haworth,Walter Norman Haworth,male,0.5,1.0,for his investigations on carbohydrates and vitamin C,Chemistry,1883-03-19,Chorley,United Kingdom,53.653056,-2.631944,3/19/1950,Birmingham,United Kingdom,52.48561,-1.885354,Birmingham University,Birmingham,United Kingdom,52.48561,-1.885354,https://en.wikipedia.org/wiki/Norman_Haworth,1,7,200,0,20.0
1937,11/11/1937,158463,5963742,197.0,Paul Karrer,Paul Karrer,male,0.5,2.0,"for his investigations on carotenoids, flavins and vitamins A and B2",Chemistry,1889-04-21,Moscow,Russia,55.741387,37.618892,6/18/1971,Zurich,Switzerland,47.376909,8.541697,University of Zurich,Zurich,Switzerland,47.376909,8.541697,https://en.wikipedia.org/wiki/Paul_Karrer,1,7,200,0,5.0
1937,11/11/1937,158463,5963742,609.0,Roger Martin du Gard,Roger Martin du Gard,male,1.0,1.0,for the artistic power and truth with which he has depicted human conflict as well as some fundamental aspects of contemporary life in his novel-cycle <I>Les Thibault</I>,Literature,1881-03-23,Neuilly-sur-Seine,France,48.887222,2.2675,8/22/1958,Bellême,France,,,,,,,,https://en.wikipedia.org/wiki/Roger_Martin_du_Gard,0,7,122,0,26.0
1937,11/18/1937,158463,5963742,502.0,"Robert Cecil, Viscount Cecil of Chelwood","Edgar Algernon Robert Gascoyne-Cecil, 1st Viscount Cecil of Chelwood",male,1.0,1.0,"for his tireless effort in support of the League of Nations, disarmament and peace",Peace,1864-09-14,London,United Kingdom,51.510235,-0.120852,11/24/1958,Tunbridge Wells,United Kingdom,51.132377,0.263695,,,,,,"https://en.wikipedia.org/wiki/Robert_Cecil,_1st_Viscount_Cecil_of_Chelwood",0,7,112,0,21.0
1937,11/11/1937,158463,5963742,44.0,Clinton Davisson,Clinton Joseph Davisson,male,0.5,1.0,for their experimental discovery of the diffraction of electrons by crystals,Physics,1881-10-22,"Bloomington, IL",USA,40.484167,-88.993611,2/1/1958,"Charlottesville, VA",USA,38.029306,-78.476678,Bell Telephone Laboratories,"New York, NY",USA,40.715758,-74.0113,https://en.wikipedia.org/wiki/Clinton_Davisson,1,7,230,0,20.0
1937,11/11/1937,158463,5963742,45.0,George Paget Thomson,George Paget Thomson,male,0.5,2.0,for their experimental discovery of the diffraction of electrons by crystals,Physics,1892-05-03,Cambridge,United Kingdom,52.194605,0.135092,9/10/1975,Cambridge,United Kingdom,52.194605,0.135092,London University,London,United Kingdom,51.510235,-0.120852,https://en.wikipedia.org/wiki/George_Paget_Thomson,1,7,230,0,22.0
1937,10/28/1937,158463,5963742,332.0,Albert Szent-Györgyi,Albert von Szent-Györgyi Nagyrápolt,male,1.0,1.0,"for his discoveries in connection with the biological combustion processes, with special reference to vitamin C and the catalysis of fumaric acid",Physiology or Medicine,1893-09-16,Budapest,Hungary,47.497799,19.038285,10/22/1986,"Woods Hole, MA",USA,41.527173,-70.672715,Szeged University,Szeged,Hungary,46.25293,20.141511,https://en.wikipedia.org/wiki/Albert_Szent-Györgyi,0,7,232,0,1.0
1938,11/9/1939,155077,5745118,198.0,Richard Kuhn,Richard Kuhn,male,1.0,1.0,for his work on carotenoids and vitamins,Chemistry,12/3/1900,Vienna,Austria,48.207646,16.372793,7/31/1967,Heidelberg,Germany,49.39922,8.680522,Kaiser-Wilhelm-Institut (now Max-Planck Institut) für Medizinische Forschung,Heidelberg,Germany,49.39922,8.680522,https://en.wikipedia.org/wiki/Richard_Kuhn,0,4,200,0,8.0
1938,11/10/1938,155077,5745118,610.0,Pearl Buck,Pearl Buck,female,1.0,1.0,for her rich and truly epic descriptions of peasant life in China and for her biographical masterpieces,Literature,1892-06-26,"Hillsboro, WV",USA,38.138056,-80.2125,3/6/1973,"Danby, VT",USA,43.354834,-73.04755,,,,,,https://en.wikipedia.org/wiki/Pearl_S._Buck,0,4,122,0,21.0
1938,11/10/1938,155077,5745118,46.0,Enrico Fermi,Enrico Fermi,male,1.0,1.0,"for his demonstrations of the existence of new radioactive elements produced by neutron irradiation, and for his related discovery of nuclear reactions brought about by slow neutrons",Physics,9/29/1901,Rome,Italy,41.902288,12.506464,11/28/1954,"Chicago, IL",USA,41.876228,-87.638416,Rome University,Rome,Italy,41.902288,12.506464,https://en.wikipedia.org/wiki/Enrico_Fermi,0,4,230,0,7.0
1938,10/26/1939,155077,5745118,333.0,Corneille Heymans,Corneille Jean François Heymans,male,1.0,1.0,for the discovery of the role played by the sinus and aortic mechanisms in the regulation of respiration,Physiology or Medicine,1892-03-28,Ghent,Belgium,51.04699,3.735154,7/18/1968,Knokke,Belgium,51.341389,3.286944,Ghent University,Ghent,Belgium,51.04699,3.735154,https://en.wikipedia.org/wiki/Corneille_Heymans,0,4,232,0,5.0
1939,11/9/1939,148822,5346318,47.0,Ernest Lawrence,Ernest Orlando Lawrence,male,1.0,1.0,"for the invention and development of the cyclotron and for results obtained with it, especially with regard to artificial radioactive elements",Physics,8/8/1901,"Canton, SD",USA,43.302222,-96.590833,8/27/1958,"Palo Alto, CA",USA,37.444328,-122.159843,University of California,"Berkeley, CA",USA,37.87179,-122.274715,https://en.wikipedia.org/wiki/Ernest_Lawrence,0,5,230,0,22.0
1939,11/9/1939,148822,5346318,199.0,Adolf Butenandt,Adolf Friedrich Johann Butenandt,male,0.5,1.0,for his work on sex hormones,Chemistry,3/24/1903,Bremerhaven-Lehe,Germany,53.55,8.583333,1/18/1995,Munich,Germany,48.134703,11.581995,Kaiser-Wilhelm-Institut (now Max-Planck-Institut) für Biochemie,Berlin-Dahlem,Germany,52.453739,13.29313,https://en.wikipedia.org/wiki/Adolf_Butenandt,1,5,200,0,32.0
1939,11/9/1939,148822,5346318,200.0,Leopold Ruzicka,Leopold Ruzicka,male,0.5,2.0,for his work on polymethylenes and higher terpenes,Chemistry,1887-09-13,Vukovar,Croatia,45.345576,19.000574,9/26/1976,Zurich,Switzerland,47.376909,8.541697,Eidgenössische Technische Hochschule (Swiss Federal Institute of Technology),Zurich,Switzerland,47.376909,8.541697,https://en.wikipedia.org/wiki/Leopold_Ružička,1,5,200,0,1.0
1939,10/26/1939,148822,5346318,334.0,Gerhard Domagk,Gerhard Domagk,male,1.0,1.0,for the discovery of the antibacterial effects of prontosil,Physiology or Medicine,1895-10-30,Lagow,Poland,52.334306,15.292694,4/24/1964,Burgberg,Germany,,,Munster University,Munster,Germany,51.962665,7.615851,https://en.wikipedia.org/wiki/Gerhard_Domagk,0,5,232,0,12.0
1939,11/10/1939,148822,5346318,613.0,Frans Eemil Sillanpää,Frans Eemil Sillanpää,male,1.0,1.0,for his deep understanding of his country's peasantry and the exquisite art with which he has portrayed their way of life and their relationship with Nature,Literature,1888-09-16,Hämeenkyrö,Finland,61.633333,23.2,6/3/1964,Helsinki,Finland,60.167874,24.958234,,,,,,https://en.wikipedia.org/wiki/Frans_Eemil_Sillanpää,0,5,122,0,1.0
1943,11/9/1944,123691,3187732,201.0,George de Hevesy,George de Hevesy,male,1.0,1.0,for his work on the use of isotopes as tracers in the study of chemical processes,Chemistry,1885-08-01,Budapest,Hungary,47.497799,19.038285,7/5/1966,Freiburg im Breisgau,Germany,47.995,7.85,Stockholm University,Stockholm,Sweden,59.325371,18.070794,https://en.wikipedia.org/wiki/George_de_Hevesy,0,4,200,0,2.0
1943,11/9/1944,123691,3187732,48.0,Otto Stern,Otto Stern,male,1.0,1.0,for his contribution to the development of the molecular ray method and his discovery of the magnetic moment of the proton,Physics,1888-02-17,Zory,Poland,50.05,18.7,8/17/1969,"Berkeley, CA",USA,37.87179,-122.274715,Carnegie Institute of Technology,"Pittsburgh, PA",USA,40.440136,-80.008661,https://en.wikipedia.org/wiki/Otto_Stern,0,4,230,0,13.0
1943,10/26/1944,123691,3187732,335.0,Henrik Dam,Henrik Carl Peter Dam,male,0.5,1.0,for his discovery of vitamin K,Physiology or Medicine,1895-02-21,Copenhagen,Denmark,55.678127,12.572532,4/17/1976,Copenhagen,Denmark,55.678127,12.572532,Polytechnic Institute,Copenhagen,Denmark,55.678127,12.572532,https://en.wikipedia.org/wiki/Henrik_Dam,1,4,232,0,8.0
1943,10/26/1944,123691,3187732,336.0,Edward A. Doisy,Edward Adelbert Doisy,male,0.5,2.0,for his discovery of the chemical nature of vitamin K,Physiology or Medicine,1893-11-13,"Hume, IL",USA,39.796694,-87.868611,10/23/1986,"St. Louis, MO",USA,38.628133,-90.212222,Saint Louis University,"St. Louis, MO",USA,38.628133,-90.212222,https://en.wikipedia.org/wiki/Edward_Adelbert_Doisy,1,4,232,0,23.0
1944,11/15/1945,121841,3174561,202.0,Otto Hahn,Otto Hahn,male,1.0,1.0,for his discovery of the fission of heavy nuclei,Chemistry,1879-03-08,Frankfurt-on-the-Main,Germany,50.107886,8.691488,7/28/1968,Göttingen,Germany,51.539385,9.913113,Kaiser-Wilhelm-Institut (now Max-Planck Institut) für Chemie,Berlin-Dahlem,Germany,52.453739,13.29313,https://en.wikipedia.org/wiki/Otto_Hahn,0,5,200,0,33.0
1944,11/9/1944,121841,3174561,614.0,Johannes V. Jensen,Johannes Vilhelm Jensen,male,1.0,1.0,"for the rare strength and fertility of his poetic imagination with which is combined an intellectual curiosity of wide scope and a bold, freshly creative style",Literature,1873-01-20,Farsø,Denmark,56.772222,9.339722,11/25/1950,Copenhagen,Denmark,55.678127,12.572532,,,,,,https://en.wikipedia.org/wiki/Johannes_Vilhelm_Jensen,0,5,122,0,9.0
1944,11/9/1944,121841,3174561,49.0,Isidor Isaac Rabi,Isidor Isaac Rabi,male,1.0,1.0,for his resonance method for recording the magnetic properties of atomic nuclei,Physics,1898-07-29,Rymanow,Poland,49.576432,21.867743,1/11/1988,"New York, NY",USA,40.715758,-74.0113,Columbia University,"New York, NY",USA,40.715758,-74.0113,https://en.wikipedia.org/wiki/Isidor_Isaac_Rabi,0,5,230,0,14.0
1944,10/26/1944,121841,3174561,337.0,Joseph Erlanger,Joseph Erlanger,male,0.5,1.0,for their discoveries relating to the highly differentiated functions of single nerve fibres,Physiology or Medicine,1874-01-05,"San Francisco, CA",USA,37.774498,-122.429706,12/5/1965,"St. Louis, MO",USA,38.628133,-90.212222,Washington University,"St. Louis, MO",USA,38.628133,-90.212222,https://en.wikipedia.org/wiki/Joseph_Erlanger,1,5,232,0,24.0
1944,10/26/1944,121841,3174561,338.0,Herbert S. Gasser,Herbert Spencer Gasser,male,0.5,2.0,for their discoveries relating to the highly differentiated functions of single nerve fibres,Physiology or Medicine,1888-07-05,"Platteville, WI",USA,42.736944,-90.4775,5/11/1963,"New York, NY",USA,40.715758,-74.0113,Rockefeller Institute for Medical Research,"New York, NY",USA,40.715758,-74.0113,https://en.wikipedia.org/wiki/Herbert_Spencer_Gasser,1,5,232,0,25.0
1945,11/15/1945,121333,3161325,203.0,Artturi Virtanen,Artturi Ilmari Virtanen,male,1.0,1.0,"for his research and inventions in agricultural and nutrition chemistry, especially for his fodder preservation method",Chemistry,1895-01-15,Helsinki,Finland,60.167874,24.958234,11/11/1973,Helsinki,Finland,60.167874,24.958234,University of Helsinki,Helsinki,Finland,60.167874,24.958234,https://en.wikipedia.org/wiki/Artturi_Ilmari_Virtanen,0,7,200,0,2.0
1945,11/15/1945,121333,3161325,615.0,Gabriela Mistral,Gabriela Mistral,female,1.0,1.0,"for her lyric poetry which, inspired by powerful emotions, has made her name a symbol of the idealistic aspirations of the entire Latin American world",Literature,1889-04-07,Vicuña,Chile,-30.032743,-70.708048,1/10/1957,"Hempstead, NY",USA,40.706213,-73.61874,,,,,,https://en.wikipedia.org/wiki/Gabriela_Mistral,0,7,122,0,1.0
1945,11/15/1945,121333,3161325,50.0,Wolfgang Pauli,Wolfgang Pauli,male,1.0,1.0,"for the discovery of the Exclusion Principle, also called the Pauli Principle",Physics,4/25/1900,Vienna,Austria,48.207646,16.372793,12/15/1958,Zurich,Switzerland,47.376909,8.541697,Princeton University,"Princeton, NJ",USA,40.359783,-74.668268,https://en.wikipedia.org/wiki/Wolfgang_Pauli,0,7,230,0,9.0
1945,10/25/1945,121333,3161325,341.0,Sir Howard Florey,Sir Howard Walter Florey,male,0.333333,3.0,for the discovery of penicillin and its curative effect in various infectious diseases,Physiology or Medicine,1898-09-24,Adelaide,Australia,-34.92694,138.598792,2/21/1968,Oxford,United Kingdom,51.753363,-1.260979,University of Oxford,Oxford,United Kingdom,51.753363,-1.260979,https://en.wikipedia.org/wiki/Howard_Florey,1,7,232,0,2.0
1945,10/25/1945,121333,3161325,339.0,Sir Alexander Fleming,Sir Alexander Fleming,male,0.333333,1.0,for the discovery of penicillin and its curative effect in various infectious diseases,Physiology or Medicine,1881-08-06,Lochfield,Scotland,,,3/11/1955,London,United Kingdom,51.510235,-0.120852,London University,London,United Kingdom,51.510235,-0.120852,https://en.wikipedia.org/wiki/Alexander_Fleming,1,7,232,0,5.0
1945,10/25/1945,121333,3161325,340.0,Ernst B. Chain,Ernst Boris Chain,male,0.333333,2.0,for the discovery of penicillin and its curative effect in various infectious diseases,Physiology or Medicine,6/19/1906,Berlin,Germany,52.522265,13.406852,8/12/1979,Mulrany,Ireland,,,University of Oxford,Oxford,United Kingdom,51.753363,-1.260979,https://en.wikipedia.org/wiki/Ernst_Boris_Chain,1,7,232,0,34.0
1945,11/12/1945,121333,3161325,505.0,Cordell Hull,Cordell Hull,male,1.0,1.0,for his indefatigable work for international understanding and his pivotal role in establishing the United Nations,Peace,1871-10-02,"Olympus, TN",USA,36.566667,-85.083333,7/23/1955,"Bethesda, MD",USA,38.984918,-77.093308,,,,,,https://en.wikipedia.org/wiki/Cordell_Hull,0,7,112,0,26.0
1946,11/14/1946,121524,3166301,204.0,James B. Sumner,James Batcheller Sumner,male,0.5,1.0,for his discovery that enzymes can be crystallized,Chemistry,1887-11-19,"Canton, MA",USA,42.158333,-71.145278,8/12/1955,"Buffalo, NY",USA,42.886435,-78.873198,Cornell University,"Ithaca, NY",USA,42.444089,-76.50095,https://en.wikipedia.org/wiki/James_B._Sumner,1,8,200,0,27.0
1946,11/14/1946,121524,3166301,205.0,John H. Northrop,John Howard Northrop,male,0.25,2.0,for their preparation of enzymes and virus proteins in a pure form,Chemistry,1891-07-05,"Yonkers, NY",USA,40.941389,-73.864444,5/27/1987,"Wickenberg, AZ",USA,33.969766,-112.730188,Rockefeller Institute for Medical Research,"Princeton, NJ",USA,40.359783,-74.668268,https://en.wikipedia.org/wiki/John_Howard_Northrop,1,8,200,0,28.0
1946,11/14/1946,121524,3166301,206.0,Wendell M. Stanley,Wendell Meredith Stanley,male,0.25,3.0,for their preparation of enzymes and virus proteins in a pure form,Chemistry,8/16/1904,"Ridgeville, IN",USA,40.288954,-85.029245,6/15/1971,Salamanca,Spain,40.970104,-5.66354,Rockefeller Institute for Medical Research,"Princeton, NJ",USA,40.359783,-74.668268,https://en.wikipedia.org/wiki/Wendell_Meredith_Stanley,1,8,200,0,29.0
1946,11/14/1946,121524,3166301,617.0,Hermann Hesse,Hermann Hesse,male,1.0,1.0,"for his inspired writings which, while growing in boldness and penetration, exemplify the classical humanitarian ideals and high qualities of style",Literature,1877-07-02,Calw,Germany,48.713654,8.74321,8/9/1962,Montagnola,Switzerland,45.982997,8.916892,,,,,,https://en.wikipedia.org/wiki/Hermann_Hesse,0,8,122,0,35.0
1946,11/14/1946,121524,3166301,506.0,Emily Greene Balch,Emily Greene Balch,female,0.5,1.0,for her lifelong work for the cause of peace,Peace,1867-01-08,"Boston, MA",USA,42.36042,-71.05681,1/9/1961,"Cambridge, MA",USA,42.374024,-71.107306,,,,,,https://en.wikipedia.org/wiki/Emily_Greene_Balch,1,8,112,0,30.0
1946,11/14/1946,121524,3166301,507.0,John R. Mott,John Raleigh Mott,male,0.5,2.0,for his contribution to the creation of a peace-promoting religious brotherhood across national boundaries,Peace,1865-05-25,"Livingston Manor, NY",USA,41.90036,-74.828217,1/31/1955,,USA,,,,,,,,https://en.wikipedia.org/wiki/John_Mott,1,8,112,0,31.0
1946,11/14/1946,121524,3166301,51.0,Percy W. Bridgman,Percy Williams Bridgman,male,1.0,1.0,"for the invention of an apparatus to produce extremely high pressures, and for the discoveries he made therewith in the field of high pressure physics",Physics,1882-04-21,"Cambridge, MA",USA,42.374024,-71.107306,8/20/1961,"Randolph, NH",USA,44.375339,-71.279798,Harvard University,"Cambridge, MA",USA,42.374024,-71.107306,https://en.wikipedia.org/wiki/Percy_Williams_Bridgman,0,8,230,0,32.0
1946,10/31/1946,121524,3166301,342.0,Hermann J. Muller,Hermann Joseph Muller,male,1.0,1.0,for the discovery of the production of mutations by means of X-ray irradiation,Physiology or Medicine,1890-12-21,"New York, NY",USA,40.715758,-74.0113,4/5/1967,"Indianapolis, IN",USA,39.768611,-86.158056,Indiana University,"Bloomington, IN",USA,39.1655,-86.526591,https://en.wikipedia.org/wiki/Hermann_Joseph_Muller,0,8,232,0,33.0
1947,11/13/1947,146115,3685518,52.0,Edward V. Appleton,Sir Edward Victor Appleton,male,1.0,1.0,for his investigations of the physics of the upper atmosphere especially for the discovery of the so-called Appleton layer,Physics,1892-09-06,Bradford,United Kingdom,53.794,-1.751,4/21/1965,Edinburgh,Scotland,55.955709,-3.207405,Department of Scientific and Industrial Research,London,United Kingdom,51.510235,-0.120852,https://en.wikipedia.org/wiki/Edward_Victor_Appleton,0,6,230,0,23.0
1947,11/13/1947,146115,3685518,207.0,Sir Robert Robinson,Sir Robert Robinson,male,1.0,1.0,"for his investigations on plant products of biological importance, especially the alkaloids",Chemistry,1886-09-13,"Rufford, near Chesterfield",United Kingdom,,,2/8/1975,Great Missenden,United Kingdom,51.704062,-0.707818,University of Oxford,Oxford,United Kingdom,51.753363,-1.260979,https://en.wikipedia.org/wiki/Robert_Robinson_(organic_chemist),0,6,200,0,24.0
1947,11/13/1947,146115,3685518,618.0,André Gide,André Paul Guillaume Gide,male,1.0,1.0,"for his comprehensive and artistically significant writings, in which human problems and conditions have been presented with a fearless love of truth and keen psychological insight",Literature,1869-11-22,Paris,France,48.860093,2.355954,2/19/1951,Paris,France,48.860093,2.355954,,,,,,https://en.wikipedia.org/wiki/André_Gide,0,6,122,0,27.0
1947,10/23/1947,146115,3685518,344.0,Gerty Cori,"Gerty Theresa Cori, née Radnitz",female,0.25,2.0,for their discovery of the course of the catalytic conversion of glycogen,Physiology or Medicine,1896-08-15,Prague,Czech Republic,50.07507,14.42989,10/26/1957,"St. Louis, MO",USA,38.628133,-90.212222,Washington University,"St. Louis, MO",USA,38.628133,-90.212222,https://en.wikipedia.org/wiki/Gerty_Cori,1,6,232,0,2.0
1947,10/23/1947,146115,3685518,345.0,Bernardo Houssay,Bernardo Alberto Houssay,male,0.5,3.0,for his discovery of the part played by the hormone of the anterior pituitary lobe in the metabolism of sugar,Physiology or Medicine,1887-04-10,Buenos Aires,Argentina,-34.603443,-58.396729,9/21/1971,Buenos Aires,Argentina,-34.603443,-58.396729,Instituto de Biologia y Medicina Experimental (Institute for Biology and Experimental Medicine),Buenos Aires,Argentina,-34.603443,-58.396729,https://en.wikipedia.org/wiki/Bernardo_Houssay,1,6,232,0,2.0
1947,10/23/1947,146115,3685518,343.0,Carl Cori,Carl Ferdinand Cori,male,0.25,1.0,for their discovery of the course of the catalytic conversion of glycogen,Physiology or Medicine,1896-12-05,Prague,Czech Republic,50.07507,14.42989,10/20/1984,"Cambridge, MA",USA,42.374024,-71.107306,Washington University,"St. Louis, MO",USA,38.628133,-90.212222,https://en.wikipedia.org/wiki/Carl_Ferdinand_Cori,1,6,232,0,3.0
1948,11/4/1948,159773,3865528,208.0,Arne Tiselius,Arne Wilhelm Kaurin Tiselius,male,1.0,1.0,"for his research on electrophoresis and adsorption analysis, especially for his discoveries concerning the complex nature of the serum proteins",Chemistry,8/10/1902,Stockholm,Sweden,59.325371,18.070794,10/29/1971,Uppsala,Sweden,59.858503,17.638748,Uppsala University,Uppsala,Sweden,59.858503,17.638748,https://en.wikipedia.org/wiki/Arne_Tiselius,0,4,200,0,12.0
1948,11/4/1948,159773,3865528,619.0,T.S. Eliot,Thomas Stearns Eliot,male,1.0,1.0,"for his outstanding, pioneer contribution to present-day poetry",Literature,1888-09-26,"St. Louis, MO",USA,38.628133,-90.212222,1/4/1965,London,United Kingdom,51.510235,-0.120852,,,,,,https://en.wikipedia.org/wiki/T._S._Eliot,0,4,122,0,34.0
1948,11/4/1948,159773,3865528,53.0,Patrick M.S. Blackett,Patrick Maynard Stuart Blackett,male,1.0,1.0,"for his development of the Wilson cloud chamber method, and his discoveries therewith in the fields of nuclear physics and cosmic radiation",Physics,1897-11-18,London,United Kingdom,51.510235,-0.120852,7/13/1974,London,United Kingdom,51.510235,-0.120852,Victoria University,Manchester,United Kingdom,53.478756,-2.245094,"https://en.wikipedia.org/wiki/Patrick_Blackett,_Baron_Blackett",0,4,230,0,25.0
1948,10/28/1948,159773,3865528,346.0,Paul Müller,Paul Hermann Müller,male,1.0,1.0,for his discovery of the high efficiency of DDT as a contact poison against several arthropods,Physiology or Medicine,1899-01-12,Olten,Switzerland,47.558109,7.587826,10/12/1965,Basel,Switzerland,47.560153,7.58788,Laboratorium der Farben-Fabriken J.R. Geigy A.G. (Laboratory of the J.R. Geigy Dye-Factory Co.),Basel,Switzerland,47.560153,7.58788,https://en.wikipedia.org/wiki/Paul_Hermann_Müller,0,4,232,0,7.0
1949,11/3/1949,156290,3705636,209.0,William F. Giauque,William Francis Giauque,male,1.0,1.0,"for his contributions in the field of chemical thermodynamics, particularly concerning the behaviour of substances at extremely low temperatures",Chemistry,1895-05-12,Niagara Falls,Canada,43.116667,-79.066667,3/28/1982,"Berkeley, CA",USA,37.87179,-122.274715,University of California,"Berkeley, CA",USA,37.87179,-122.274715,https://en.wikipedia.org/wiki/William_Giauque,0,6,200,0,2.0
1949,11/10/1950,156290,3705636,620.0,William Faulkner,William Faulkner,male,1.0,1.0,for his powerful and artistically unique contribution to the modern American novel,Literature,1897-09-25,"New Albany, MS",USA,34.494268,-89.007842,7/6/1962,"Byhalia, MS",USA,34.872318,-89.69064,,,,,,https://en.wikipedia.org/wiki/William_Faulkner,0,6,122,0,35.0
1949,10/12/1949,156290,3705636,510.0,Lord Boyd Orr,"John Boyd Orr, Baron Boyd-Orr of Brechin Mearn",male,1.0,1.0,"for his lifelong effort to conquer hunger and want, thereby helping to remove a major cause of military conflict and war",Peace,1880-09-23,Kilmaurs,Scotland,55.639131,-4.528094,6/25/1971,Edzell,Scotland,56.816128,-2.619734,,,,,,"https://en.wikipedia.org/wiki/John_Boyd_Orr,_1st_Baron_Boyd-Orr",0,6,112,0,6.0
1949,11/3/1949,156290,3705636,54.0,Hideki Yukawa,Hideki Yukawa,male,1.0,1.0,for his prediction of the existence of mesons on the basis of theoretical work on nuclear forces,Physics,1/23/1907,Tokyo,Japan,35.680183,139.769373,9/8/1981,Kyoto,Japan,35.017709,135.761432,Columbia University,"New York, NY",USA,40.715758,-74.0113,https://en.wikipedia.org/wiki/Hideki_Yukawa,0,6,230,0,1.0
1949,10/27/1949,156290,3705636,347.0,Walter Hess,Walter Rudolf Hess,male,0.5,1.0,for his discovery of the functional organization of the interbrain as a coordinator of the activities of the internal organs,Physiology or Medicine,1881-03-17,Frauenfeld,Switzerland,47.5536,8.898754,8/12/1973,Ascona,Switzerland,,,University of Zurich,Zurich,Switzerland,47.376909,8.541697,https://en.wikipedia.org/wiki/Walter_Rudolf_Hess,1,6,232,0,8.0
1949,10/27/1949,156290,3705636,348.0,Egas Moniz,António Caetano de Abreu Freire Egas Moniz,male,0.5,2.0,for his discovery of the therapeutic value of leucotomy in certain psychoses,Physiology or Medicine,1874-11-29,Avanca,Portugal,40.806589,-8.572261,12/13/1955,Lisbon,Portugal,38.722625,-9.144632,University of Lisbon,Lisbon,Portugal,38.722625,-9.144632,https://en.wikipedia.org/wiki/António_Egas_Moniz,1,6,232,0,1.0
1950,11/10/1950,164304,3857077,211.0,Kurt Alder,Kurt Alder,male,0.5,2.0,for their discovery and development of the diene synthesis,Chemistry,7/10/1902,Chorzów,Poland,50.3,18.95,6/20/1958,Cologne,Germany,50.938552,6.957702,Cologne University,Cologne,Germany,50.938552,6.957702,https://en.wikipedia.org/wiki/Kurt_Alder,1,8,200,0,15.0
